Zip;City;latitude;longitude;Country
25650;ville du pont;46.999873398;6.498147193;France
25640;villers grelot;47.361512085;6.235167025;France
25310;villars les blamont;47.368383721;6.871414913;France
25240;les villedieu;46.713906258;6.26583065;France
25170;villers buzon;47.228558434;5.852186748;France
25510;villers la combe;47.240809828;6.473842387;France
25270;villers sous chalamont;46.901588322;6.045328224;France
25420;voujeaucourt;47.473552905;6.782505604;France
2860;bouconville vauclair;49.460193485;3.756684634;France
2400;bouresches;49.067056293;3.316703204;France
2240;brissy hamegicourt;49.742857871;3.399923608;France
2810;brumetz;49.110351585;3.153350725;France
2360;brunehamel;49.771382057;4.186261479;France
2880;bucy le long;49.387973822;3.398519722;France
2300;caillouel crepigny;49.617755672;3.121707969;France
2300;camelin;49.52049848;3.127624347;France
2860;cerny en laonnois;49.450196586;3.679121433;France
2000;chambry;49.598625529;3.671806573;France
2340;chaourse;49.70058224;3.985961293;France
2800;charmes;49.650915124;3.384799677;France
2200;chaudun;49.315257363;3.252722944;France
2300;chauny;49.619538899;3.219139283;France
2810;chezy en orxois;49.126870891;3.168015889;France
2000;chivy les etouvelles;49.532848303;3.585053697;France
2220;ciry salsogne;49.367262408;3.467612315;France
2440;clastres;49.749158544;3.230539083;France
2860;montchalons;49.513778836;3.727459479;France
2860;monthenault;49.489769799;3.655508134;France
2810;montigny l allier;49.122370638;3.107996308;France
2290;montigny lengrain;49.372578828;3.099063795;France
2220;mont notre dame;49.292397628;3.582216807;France
2360;mont st jean;49.792702607;4.210227315;France
2210;muret et crouttes;49.278626123;3.434628893;France
2400;nesles la montagne;48.999750332;3.44605178;France
2190;neufchatel sur aisne;49.436580849;4.024031385;France
2170;le nouvion en thierache;50.008566787;3.809358313;France
2300;ognes;49.614542455;3.191108052;France
2190;orainville;49.375881407;4.016154951;France
2290;osly courtil;49.399369702;3.237910386;France
2860;pancy courtecon;49.46035579;3.649818372;France
2260;papleux;50.017614944;3.880061553;France
2210;parcy et tigny;49.270195121;3.329041936;France
2840;parfondru;49.538438581;3.703323738;France
2330;pargny la dhuys;48.954292173;3.563228277;France
2270;pargny les bois;49.73198721;3.617572589;France
2240;parpeville;49.794619132;3.564481061;France
2540;viffort;48.957893106;3.469516322;France
2130;villeneuve sur fere;49.170863583;3.4754559240000003;France
2590;villers st christophe;49.779716306;3.09133152;France
2500;wimy;49.948014627;3.997490476;France
5800;st firmin;44.793514305;6.025693765;France
2250;bosmont sur serre;49.739164547;3.866951038;France
2160;bouffignereux;49.378528828;3.846143285;France
2300;bourguignon sous coucy;49.543351686;3.154672717;France
2320;brancourt en laonnois;49.516508164;3.412722641;France
2000;braye en laonnois;49.437398745;3.609863828;France
2220;brenelle;49.368284047;3.54436136;France
2870;brie;49.597375488;3.473167317;France
2860;bruyeres et montberault;49.524775786;3.669533869;France
2300;camelin;49.52049848;3.127624347;France
2680;castres;49.800742628;3.253372217;France
2000;chaillevois;49.508011773;3.522228189;France
7190;albon d ardeche;44.814986241;4.42533053;France
2370;chassemy;49.377956997;3.5022180460000003;France
2400;chateau thierry;49.056425662;3.381541175;France
7100;annonay;45.24633989;4.651027131;France
2270;chatillon les sons;49.761912822;3.702869899;France
2240;chatillon sur oise;49.793931936;3.416909399;France
2220;chery chartreuve;49.255681433;3.604732022;France
7140;les assions;44.425050124;4.184546969;France
2000;chery les pouilly;49.648935895;3.593859599;France
7190;beauvene;44.869254781;4.511902169;France
2120;chigny;49.930254202;3.776579181;France
2250;cilly;49.749214967;3.840427798;France
7150;bessas;44.337648804;4.298027723;France
7100;boulieu les annonay;45.267247358;4.64531343;France
7000;freyssenet;44.688564128;4.546249145;France
7140;gravieres;44.421176818;4.071956856;France
7110;laurac en vivarais;44.503712977;4.288051747;France
7140;malarce sur la thines;44.47842111;4.050331709;France
7190;marcols les eaux;44.805857591;4.389352756;France
7110;montreal;44.518242755;4.294294724;France
7160;belsentes;44.915172091;4.501873879;France
7110;prunet;44.595386971;4.254443305;France
7110;rocher;44.580743053;4.279673268;France
7120;st alban auriolles;44.434362261;4.294617257;France
7120;st alban auriolles;44.434362261;4.294617257;France
7190;st etienne de serre;44.801469013;4.523351508;France
7190;st genest lachamp;44.844258846;4.424403779;France
7190;st maurice en chalencon;44.854713177;4.582378545;France
7130;st peray;44.940900268;4.824380067;France
7130;st romain de lerps;44.976021002;4.796591138;France
7120;sampzon;44.412648109;4.331865524;France
7110;sanilhac;44.532932661;4.231771763;France
7130;soyons;44.891795842;4.851099731;France
2110;montbrehain;49.964774581;3.356345656;France
2440;montescourt lizerolles;49.735843297;3.261878148;France
7150;vallon pont d arc;44.400362094;4.405442855;France
2330;montigny les conde;48.983232726;3.566517221;France
7140;les vans;44.392227568;4.114704212;France
2250;montigny sous marle;49.741394451;3.804042798;France
2340;montloue;49.667813906;4.062955359;France
2400;mont st pere;49.081931195;3.476999705;France
7170;villeneuve de berg;44.549110618;4.503596816;France
2600;mortefontaine;49.336522127;3.081227765;France
2200;nampteuil sous muret;49.305284958;3.433858092;France
2300;neuflieux;49.617084777;3.159479468;France
2470;neuilly st front;49.162859433;3.264251606;France
2150;nizy le comte;49.574436225;4.030266889;France
2600;noroy sur ourcq;49.204123313;3.207797063;France
2270;nouvion et catillon;49.707297768;3.493588723;France
2500;ohis;49.918552317;4.011905333;France
2850;passy sur marne;49.066037275;3.574160645;France
2200;pernant;49.375849613;3.229862367;France
2130;villers agron aiguizy;49.163077859;3.716339895;France
2120;wiege faty;49.883202459;3.713383147;France
9600;aigues vives;43.000605933;1.877001309;France
9310;albies;42.75449595;1.698141074;France
9240;alzen;42.981477991;1.455583307;France
9800;antras;42.873136055;0.901076172;France
9250;appy;42.804212622;1.741572347;France
9400;arnave;42.852578527;1.6462588500000002;France
9800;arrien en bethmale;42.877897905;1.036286961;France
9310;aston;42.681045186;1.659353899;France
9230;barjac;43.062358722;1.134894033;France
9100;benagues;43.077767567;1.609995993;France
9500;besset;43.072394781;1.846291671;France
9250;bestiac;42.785299496;1.799260845;France
9160;betchat;43.084337113;1.02905351;France
9100;bezac;43.152935541;1.5735185180000002;France
9800;bonac irazein;42.840298273;0.982966446;France
9310;bouan;42.792392257;1.643365341;France
9320;boussenac;42.907697093;1.391199599;France
9000;burret;42.951550607;1.472306905;France
9120;calzan;43.033346295;1.741123428;France
9300;carla de roquefort;42.975332692;1.7620467190000002;France
9420;castelnau durban;42.992428714;1.338333517;France
9130;casteras;43.127912251;1.403548506;France
9350;castex;43.166036647;1.319505787;France
9120;cazaux;43.052924497;1.519269138;France
5800;st maurice en valgodemard;44.798496053;6.112547256;France
7110;chassiers;44.566071049;4.301942115;France
7110;chazeaux;44.595318348;4.298677117;France
7130;cornas;44.965893212;4.841157717;France
7000;coux;44.743230369;4.622473789;France
7170;darbres;44.659793314;4.515767253;France
7160;dornas;44.851597834;4.357764189;France
7110;largentiere;44.533435177;4.301173733;France
7160;mariac;44.885755486;4.353058652;France
7140;montselgues;44.533398573;4.003739641;France
7000;privas;44.722434276;4.594124449;France
7110;rocles;44.568283822;4.207891882;France
7160;st cierge sous le cheylard;44.926511605;4.453931301;France
7100;st marcel les annonay;45.2886497;4.629391603;France
7140;st pierre st jean;44.48245206;4.101861085;France
7190;st pierreville;44.818862746;4.481469211;France
7140;les vans;44.392227568;4.114704212;France
39270;alieze;46.585078016;5.58585556;France
39240;arinthod;46.393818871;5.582269114;France
39210;arlay;46.765371686;5.537548031;France
39270;la chailleuse;46.581654364;5.526378282;France
39800;aumont;46.916358761;5.633131722;France
39700;auxange;47.177696691;5.654431375;France
39200;avignon les st claude;46.401415232;5.841108907;France
39380;bans;46.982403501;5.580664055;France
39100;baverans;47.105995408;5.536574226;France
39190;beaufort orbagna;46.585163377;5.434623271;France
39400;bellefontaine;46.556551899;6.082359393;France
39380;belmont;47.028201675;5.605061014;France
39800;bersaillin;46.857207383;5.595263907;France
39110;bracon;46.925701949;5.868310395;France
39800;buvilly;46.869681049;5.725636745;France
39240;cernon;46.412315932;5.643405536;France
39150;les chalesmes;46.692139123;6.026439714;France
39250;charency;46.766948662;5.991886106;France
39130;charezier;46.614530533;5.726955677;France
39210;chateau chalon;46.759243277;5.648414693;France
39230;le chateley;46.879800002;5.5442929450000005;France
39130;chatillon;46.663026475;5.727169626;France
39200;nanchez;46.500781245;5.861824827;France
39110;chaux champagny;46.884154623;5.879711162;France
39570;chille;46.693041196;5.571909283;France
39110;chilly sur salins;46.870199969;5.858210036;France
39380;chissey sur loue;47.060399995;5.740191409;France
39140;commenailles;46.805895385;5.437128703;France
39570;courlans;46.676012788;5.487388674;France
39570;courlaoux;46.669676119;5.449171257;France
39700;courtefontaine;47.132677999;5.792778762;France
39260;coyron;46.512641842;5.697033148;France
39210;hauteroche;46.699491802;5.697212623;France
39260;crenans;46.466529395;5.7419862340000005;France
39100;crissey;47.051054482;5.478654585;France
39700;dampierre;47.173242784;5.742542149;France
39130;denezieres;46.623880768;5.801157366;France
39120;le deschaux;46.950886325;5.498571507;France
39230;les deux fays;46.885617586;5.487783703;France
39190;digna;46.518360263;5.38498466;France
39100;dole;47.075502708;5.500897034;France
39270;dompierre sur mont;46.562417185;5.612866077;France
39240;dramelay;46.404302536;5.52954359;France
39160;val d epy;46.389785344;5.397605725;France
39320;val d epy;46.389785344;5.397605725;France
39300;equevillon;46.760836092;5.9428508650000005;France
9200;alos;42.897888566;1.129211246;France
39130;etival;46.492221957;5.793862303;France
9400;arignac;42.87585768;1.595543477;France
39230;francheville;46.836292538;5.502884384;France
9460;artigues;42.689846976;2.037910827;France
39130;le frasnois;46.636351633;5.890811397;France
9140;aulus les bains;42.766542296;1.355768892;France
39110;geraise;46.958660024;5.954886904;France
9800;balacet;42.887117793;0.98278804;France
39380;germigney;47.037391858;5.6858203320000005;France
9500;la bastide de bousignac;43.058173549;1.884852447;France
39570;gevingey;46.638116747;5.50962812;France
9240;la bastide de serou;43.024895448;1.392649757;France
39150;grande riviere chateau;46.528638867;5.909426948;France
9600;la bastide sur l hers;42.950959843;1.89986243;France
39320;graye et charnay;46.473281265;5.44835224;France
9600;belloc;43.00739017;1.933669882;France
39110;ivrey;46.989178766;5.896461266;France
9300;benaix;42.895305448;1.850852879;France
39210;ladoye sur seille;46.767223289;5.682794409;France
9800;bethmale;42.853965958;1.07673861;France
9800;bordes uchentein;42.837369269;1.032045893;France
39140;larnaud;46.706103332;5.457630233;France
9700;brie;43.206824744;1.517381142;France
39250;la latette;46.752350191;6.095555289;France
9290;camarade;43.069587717;1.277445001;France
39170;lavans les st claude;46.38753267;5.769814173;France
9500;camon;43.021739562;1.962204382;France
39170;lavans les st claude;46.38753267;5.769814173;France
9460;carcanieres;42.707804729;2.123895517;France
39170;lavans les st claude;46.38753267;5.769814173;France
9500;cazals des bayles;43.092880528;1.939678458;France
39210;lavigny;46.716723376;5.605508663;France
9230;cerizols;43.119836867;1.067612925;France
39210;lavigny;46.716723376;5.605508663;France
9310;chateau verdun;42.781483366;1.677300872;France
39260;lect;46.394732447;5.672467609;France
39110;lemuy;46.889451599;5.982617343;France
39300;lent;46.75111933;5.976163891;France
39250;longcochon;46.770954536;6.075184305;France
39380;la loye;47.030432038;5.552809277;France
39270;marnezia;46.575761446;5.636094441;France
39600;mesnay;46.900018759;5.818250676;France
39250;mignovillard;46.77774079;6.140716692;France
39250;mignovillard;46.77774079;6.140716692;France
39800;molain;46.825383647;5.816773193;France
39500;molay;47.015340653;5.423234616;France
39230;monay;46.83829832;5.5952518520000005;France
39100;monnieres;47.114115559;5.460997029;France
39800;montholier;46.894594959;5.639042641;France
39600;montigny les arsures;46.937006746;5.776683918;France
39300;montigny sur l ain;46.705139659;5.791865625;France
39290;montmirey la ville;47.217230686;5.51656716;France
39290;montmirey le chateau;47.229925885;5.533745481;France
39300;montrond;46.786828301;5.843837081;France
39400;morbier;46.557287203;6.016436172;France
39250;mournans charbonny;46.776692106;5.9905407870000005;France
39310;les moussieres;46.326880758;5.872391483;France
39300;moutoux;46.790797471;5.943902595;France
39160;les trois chateaux;46.419552874;5.35630085;France
39270;nancuise;46.473943072;5.529454815;France
39300;les nans;46.79445617;5.973982908;France
39380;nevy les dole;47.002726559;5.51581086;France
39210;nevy sur seille;46.735070332;5.644726458;France
39290;offlanges;47.203818512;5.560676356;France
39270;onoz;46.448708512;5.663245225;France
39270;orgelet;46.519453561;5.598867642;France
39350;pagney;47.249741201;5.699474911;France
39230;passenans;46.804080834;5.623869417;France
39120;peseux;46.993310722;5.366668785;France
39800;picarreau;46.754640248;5.756814531;France
39800;plasne;46.794313254;5.690542388;France
39570;poids de fiole;46.594688625;5.622458481;France
39800;poligny;46.818861886;5.773947475;France
39300;pont du navoy;46.731661169;5.789236418;France
39120;rahon;46.993964981;5.4744054680000005;France
39190;rotalier;46.583165602;5.476647948;France
39270;rothonay;46.515275321;5.527285899;France
39350;rouffange;47.22663237;5.708697328;France
39220;les rousses;46.498235856;6.06968778;France
39400;les rousses;46.498235856;6.06968778;France
39190;ste agnes;46.614706582;5.474621246;France
39200;st claude;46.408714547;5.875920618;France
39600;st cyr montmalin;46.958784809;5.722490744;France
39570;st didier;46.708595427;5.511372071;France
39320;val suran;46.386313329;5.443105612;France
39320;val suran;46.386313329;5.443105612;France
39170;coteaux du lizon;46.412246961;5.798719091;France
39570;st maur;46.606897999;5.595990619;France
39130;st maurice crillat;46.568096837;5.834026935;France
39700;salans;47.160113967;5.794392815;France
39380;santans;47.042099833;5.665477502;France
39270;sarrogna;46.474500649;5.617408824;France
39130;songeson;46.647137037;5.830542779;France
39130;soucia;46.540172646;5.757784209;France
39380;souvans;46.97920539;5.553672934;France
39120;tassenieres;46.923022059;5.512541577;France
39270;la tour du meix;46.523696813;5.662745455;France
39570;trenal;46.636413188;5.4624955790000005;France
39570;verges;46.658826692;5.684090724;France
39800;villerserine;46.855455889;5.639683999;France
39600;villette les arbois;46.933518721;5.743829779;France
39230;le villey;46.848011647;5.507972027;France
39190;val sonnette;46.602897042;5.464680776;France
39190;val sonnette;46.602897042;5.464680776;France
39230;vincent froideville;46.79367224;5.482371739;France
39240;vosbles valfin;46.348400035;5.52189486;France
58270;anlezy;46.966560312;3.498985277;France
58800;anthien;47.308662574;3.724871048;France
58430;arleuf;47.040464565;4.015692994;France
58420;asnan;47.310372331;3.5523411510000003;France
58110;aunay en bazois;47.124134471;3.719630112;France
58110;biches;46.993703901;3.654343187;France
58270;billy chevannes;47.011971519;3.461879934;France
58120;blismes;47.122483237;3.82148616;France
58530;breves;47.429737821;3.624267859;France
58000;challuy;46.94196697;3.140253373;France
58700;champlin;47.244720142;3.45042992;France
58300;champvert;46.853200997;3.523436401;France
58800;chaumot;47.251871128;3.643272447;France
58350;colmery;47.348513898;3.246722321;France
58800;corbigny;47.256108779;3.689402188;France
58300;cossaye;46.75584565;3.5098283500000003;France
58190;dirol;47.31839342;3.643605188;France
58120;dommartin;47.071580028;3.845762646;France
58140;empury;47.347358725;3.822286786;France
58800;epiry;47.17048431;3.731841261;France
58600;garchizy;47.043647776;3.09366001;France
58300;lamenay sur loire;46.74622068;3.572315444;France
58140;lormes;47.289145913;3.825318823;France
58380;lucenay les aix;46.698049547;3.49197907;France
58260;la machine;46.891574846;3.462345119;France
58400;mesves sur loire;47.230238077;3.00396493;France
58190;metz le comte;47.393000619;3.63581637;France
58140;mhere;47.194724629;3.860095553;France
58190;moissy moulinot;47.327325796;3.707138721;France
58250;montaron;46.876229584;3.74814841;France
58130;montigny aux amognes;47.025418665;3.279291198;France
58230;montsauche les settons;47.214293843;4.033132574;France
58700;moussy;47.196501089;3.458811837;France
58450;neuvy sur loire;47.532184059;2.890145485;France
58320;parigny les vaux;47.100804556;3.14618141;France
58220;perroy;47.404986749;3.164677484;France
58200;pougny;47.393831753;3.023949976;France
58400;raveau;47.17926708;3.11591039;France
58500;rix;47.428512741;3.497810228;France
58110;rouy;47.038444956;3.540866134;France
58470;saincaize meauce;46.907173624;3.086845687;France
58310;st amand en puisaye;47.548323784;3.078355821;France
58150;st andelain;47.310384116;2.979820121;France
58130;st aubin les forges;47.142698568;3.188014293;France
58270;st benin d azy;46.996333663;3.404599867;France
58230;st brisson;47.267265254;4.095032233;France
58220;ste colombe des bois;47.320917806;3.153157406;France
58190;st didier;47.347673421;3.620226539;France
58210;st germain des bois;47.368787274;3.519227773;France
58120;st hilaire en morvan;47.06844189;3.887071717;France
58130;st martin d heuille;47.047771084;3.232701792;France
58490;st parize le chatel;46.850549482;3.184554383;France
58110;st pereuse;47.058655622;3.809291888;France
58210;st pierre du mont;47.397152106;3.445964737;France
58330;st saulge;47.101706892;3.519020775;France
58190;saizy;47.356468636;3.699305614;France
58160;sauvigny les bois;46.97672732;3.265716918;France
58170;savigny poil fol;46.783063431;3.834829642;France
58290;sermages;47.014754309;3.840844707;France
58300;sougy sur loire;46.860833962;3.406365103;France
58420;taconnay;47.312462675;3.489728345;France
58110;tamnay en bazois;47.05447347;3.723322788;France
58250;ternant;46.752204501;3.848258349;France
58110;tintury;47.001103423;3.587717764;France
58150;tracy sur loire;47.328811429;2.913507219;France
58260;trois vevres;46.911289164;3.422713491;France
58640;varennes vauzelles;47.037171544;3.143816706;France
58140;vauclaix;47.226945644;3.818473294;France
58370;villapourcon;46.938009519;3.956586921;France
58210;villiers le sec;47.376396559;3.438075945;France
39500;abergement la ronce;47.064796871;5.3777147020000005;France
39110;aiglepierre;46.955778512;5.809725465;France
39110;andelot en montagne;46.859307701;5.9287358910000005;France
39120;annoire;46.959137146;5.277080177;France
39600;arbois;46.894404349;5.773071251;France
39300;ardon;46.772582561;5.876813684;France
39240;arinthod;46.393818871;5.582269114;France
39600;les arsures;46.952953571;5.78448162;France
39270;la chailleuse;46.581654364;5.526378282;France
39190;augea;46.561977614;5.389704364;France
39270;augisey;46.554958723;5.495274567;France
39100;authume;47.125097086;5.5077556990000005;France
39130;baresia sur l ain;46.542556338;5.702967812;France
39800;bersaillin;46.857207383;5.595263907;France
39250;bief du fourg;46.820307882;6.116823945;France
39140;bletterans;46.73099818;5.426692489;France
39130;boissia;46.580398304;5.721268625;France
39800;brainans;46.874338822;5.627977286;France
39110;cernans;46.93402991;5.938916487;France
39570;cesancey;46.622738688;5.493457369;France
39380;chamblay;46.990400377;5.703642578;France
39290;champagney;47.260097181;5.5044443;France
39300;champagnole;46.744975968;5.8983600670000005;France
39500;champdivers;47.007794972;5.390195236;France
39230;champrougier;46.87911614;5.512528995;France
39230;la chassagne;46.868024219;5.4550856880000005;France
39130;chatel de joux;46.52980412;5.809442391;France
39150;la chaumusse;46.600726273;5.943755309;France
39150;chaux des crotenay;46.66328688;5.957121204;France
39150;nanchez;46.500781245;5.861824827;France
39240;st hymetiere sur valouse;46.347931605;5.5673489830000005;France
39240;st hymetiere sur valouse;46.347931605;5.5673489830000005;France
39240;st hymetiere sur valouse;46.347931605;5.5673489830000005;France
39190;chevreaux;46.499559331;5.43244807;France
39130;chevrotaine;46.652848582;5.860571474;France
39370;choux;46.30173613;5.770142336;France
39570;courbette;46.598515602;5.569052397;France
39300;crans;46.695251604;5.982330751;France
39270;cressia;46.526997962;5.483738782;France
39230;darbonnay;46.825255392;5.60789332;France
39140;desnes;46.767768879;5.468146705;France
39230;domblans;46.769387126;5.587256626;France
39270;ecrille;46.502347659;5.633946941;France
39160;val d epy;46.389785344;5.397605725;France
39320;val d epy;46.389785344;5.397605725;France
39570;l etoile;46.715901208;5.534098399;France
39700;falletans;47.081906099;5.566900417;France
39800;fay en montagne;46.753761219;5.71729563;France
39600;la ferte;46.940273716;5.650059485;France
39130;fontenu;46.672524779;5.814694447;France
39250;fraroz;46.728653012;6.095349334;France
39210;frontenay;46.787924716;5.631315523;France
39320;gigny;46.454282314;5.471075037;France
39150;grande riviere chateau;46.528638867;5.909426948;France
39120;les hays;46.908635733;5.39126767;France
39110;ivory;46.899110215;5.849311438;France
39360;larrivoire;46.339008848;5.787878066;France
39260;lect;46.394732447;5.672467609;France
39240;valzin en petite montagne;46.431656241;5.585594549;France
39400;longchaumois;46.463174814;5.963032775;France
39000;lons le saunier;46.674816281;5.557754161;France
39700;malange;47.183846224;5.614911678;France
39230;mantry;46.794726176;5.555211245;France
39240;marigna sur valouse;46.446461908;5.528323143;France
39130;marigny;46.679329287;5.777720172;France
39600;mathenay;46.929764738;5.679439534;France
39130;mesnois;46.594424045;5.676992017;France
39570;messia sur sorne;46.663781838;5.515367551;France
39250;mieges;46.789982519;6.051455026;France
39250;mieges;46.789982519;6.051455026;France
39250;mignovillard;46.77774079;6.140716692;France
39290;moissey;47.188453105;5.532434426;France
39360;chassal molinges;46.357518899;5.778193947;France
39320;monnetay;46.457979807;5.511419574;France
39210;montain;46.72079781;5.577984309;France
39400;morbier;46.557287203;6.016436172;France
39400;hauts de bienne;46.514383984;5.995902986;France
39330;mouchard;46.977657836;5.789685614;France
39270;moutonne;46.52992345;5.566253083;France
39160;les trois chateaux;46.419552874;5.35630085;France
39140;nance;46.748424371;5.422699141;France
39120;neublans abergement;46.904215976;5.339167367;France
39250;nozeroy;46.770131675;6.036061654;France
39270;orgelet;46.519453561;5.598867642;France
39700;our;47.107219545;5.648897421;France
39300;le pasquier;46.798222911;5.897069634;France
39130;patornay;46.587333549;5.709553322;France
39290;peintre;47.197841354;5.473005162;France
39270;pimorin;46.496029783;5.500632464;France
39210;plainoiseau;46.725144633;5.555650076;France
39130;pont de poitte;46.572002783;5.68755453;France
39110;pont d hery;46.87660733;5.899130373;France
39110;pont d hery;46.87660733;5.899130373;France
39270;presilly;46.557250928;5.581948101;France
39110;pretin;46.931565447;5.835326207;France
39600;pupillin;46.87631303;5.751864403;France
39570;quintigny;46.734446112;5.523936248;France
39290;rainans;47.157753345;5.473721798;France
39230;rye;46.880519205;5.425733112;France
39410;st aubin;47.032617038;5.333128565;France
39300;st germain en montagne;46.77921262;5.937871342;France
39320;val suran;46.386313329;5.443105612;France
39230;st lamain;46.804267629;5.597646331;France
39150;st laurent en grandvaux;46.56967647;5.962581102;France
39120;st loup;46.99639813;5.305116218;France
39150;st pierre;46.568212339;5.903128161;France
39110;st thiebaud;46.971606636;5.879766021;France
39110;saizenay;46.967964379;5.9286458920000005;France
39120;seligney;46.944742626;5.54086847;France
39300;supt;46.85419612;5.981511174;France
39300;syam;46.696810431;5.951906666;France
39500;tavaux;47.037624924;5.402858802;France
39110;thesy;46.904808449;5.929312164;France
39240;thoirette coisia;46.291657094;5.518713624;France
39240;thoirette coisia;46.291657094;5.518713624;France
39600;vadans;46.938400986;5.70563838;France
39300;valempoulieres;46.828094158;5.873941085;France
39300;vannoz;46.773442847;5.912066795;France
39300;le vaudioux;46.687569019;5.928396074;France
39800;vaux sur poligny;46.82299081;5.7271541290000005;France
39570;vernantois;46.627807899;5.578234652;France
39240;vescles;46.358013539;5.611305625;France
39570;vevy;46.666549203;5.663880123;France
39260;villards d heria;46.406275962;5.73542808;France
39570;villeneuve sous pymont;46.69523902;5.552303453;France
39600;villers farlay;46.993775096;5.760324831;France
39230;vincent froideville;46.79367224;5.482371739;France
39210;voiteur;46.743655872;5.602606518;France
39700;vriange;47.18360525;5.584358464;France
21121;ahuy;47.371214576;5.020496119;France
21510;aignay le duc;47.671659569;4.751193926;France
21230;allerey;47.19024207;4.420607175;France
21420;aloxe corton;47.068008045;4.86156952;France
21230;antigny la ville;47.101459482;4.559930499;France
21310;arceau;47.376096012;5.196336831;France
21350;arnay sous vitteaux;47.437236808;4.498765424;France
21360;aubaine;47.130283617;4.733758442;France
21580;avot;47.616734359;5.007235333;France
21410;baulme la roche;47.347733364;4.793730043;France
21320;bellenot sous pouilly;47.286821843;4.546193821;France
21360;bessey en chaume;47.088015422;4.742875853;France
21110;bessey les citeaux;47.145631552;5.147537611;France
21520;bissey la cote;47.912010101;4.706966857;France
21330;bissey la pierre;47.843100453;4.426207708;France
21690;source seine;47.488803885;4.696760719;France
21200;bligny les beaune;46.981841328;4.83078393;France
21360;bligny sur ouche;47.114906921;4.684266306;France
21330;bouix;47.899266371;4.468838468;France
21350;brain;47.463090644;4.505321596;France
21390;braux;47.410359424;4.418554279;France
21390;brianny;47.412152598;4.374237142;France
21500;buffon;47.656080482;4.274404797;France
21110;cessey sur tille;47.282556445;5.229085175;France
21320;chailly sur armancon;47.273253678;4.477709;France
21290;chambain;47.79513604;4.918708604;France
21400;chamesson;47.783268513;4.541453803;France
21500;champ d oiseau;47.554443111;4.347541103;France
21310;charmes;47.372195692;5.350008878;France
21170;charrey sur saone;47.099107946;5.154042673;France
21400;chatillon sur seine;47.858369131;4.591958657;France
21360;chaudenay le chateau;47.179758123;4.642522175;France
21290;chaugey;47.745545857;4.949646789;France
21400;chaumont le bois;47.933853839;4.593057339;France
21220;valforet;47.245760939;4.866785936;France
21270;clery;47.295734009;5.50123924;France
21110;collonges et premieres;47.228638946;5.291997765;France
21200;combertault;46.99156924;4.903258281;France
21700;comblanchien;47.102585062;4.918586014;France
21320;commarin;47.249135548;4.652508683;France
21150;corpoyer la chapelle;47.548960885;4.609722066;France
21120;courtivron;47.534415573;4.95287413;France
21120;crecey sur tille;47.570003665;5.141515403;France
21220;curley;47.203708131;4.910342158;France
21120;dienay;47.521595466;5.059769608;France
21000;dijon;47.322850621;5.037471304;France
21320;eguilly;47.301451523;4.500483593;France
21500;eringes;47.588539264;4.467532468;France
21510;etalante;47.629318672;4.766439896;France
21270;etevaux;47.323005489;5.322056752;France
21450;etormay;47.597679495;4.581363598;France
21290;faverolles les lucey;47.827429144;4.866005642;France
21490;flacey;47.434258335;5.135486762;France
21150;flavigny sur ozerain;47.509014232;4.518814817;France
21140;le val larrey;47.433067236;4.320016084;France
21410;fleurey sur ouche;47.300305297;4.863873416;France
21260;foncegrive;47.617293647;5.143105989;France
21220;gevrey chambertin;47.220053292;4.982552955;France
21640;gilly les citeaux;47.17760782;4.997427841;France
21580;grancey le chateau neuvelle;47.673623157;5.024479447;France
21570;grancey sur ource;47.999372429;4.577357112;France
21150;gresigny ste reine;47.551568194;4.496237286;France
21230;jouey;47.158291874;4.43763018;France
21450;jours les baigneux;47.625090219;4.604121726;France
21210;juillenay;47.361757374;4.271783053;France
21130;labergement les auxonne;47.159922549;5.379729648;France
21440;lamargelle;47.520315127;4.837284317;France
21370;lantenay;47.34391981;4.865525397;France
21170;laperriere sur saone;47.106852648;5.345970133;France
21330;larrey;47.897111685;4.424910489;France
21110;longeault pluvault;47.211203965;5.246810478;France
21290;lucey;47.852249374;4.862922237;France
21450;magny lambert;47.679433815;4.585917585;France
21170;magny les aubigny;47.111881596;5.169002847;France
21400;maisey le duc;47.845075059;4.675938717;France
21350;marcellois;47.348892074;4.6158959710000005;France
21200;marigny les reullee;47.008430095;4.95773717;France
21190;mavilly mandelot;47.060963164;4.730776438;France
21190;merceuil;46.953949309;4.848345096;France
21140;millery;47.513640521;4.317826038;France
21510;moitron;47.681931213;4.808446076;France
21200;montagny les beaune;46.985757587;4.853444653;France
21610;montigny mornay villeneuve vingeanne;47.568488741;5.450612855;France
21610;montigny mornay villeneuve vingeanne;47.568488741;5.450612855;France
21210;montlay en auxois;47.331568537;4.267753395;France
21540;montoillot;47.27226081;4.657937913;France
21320;mont st jean;47.28565988;4.411433989;France
21500;moutiers st jean;47.562129289;4.225073082;France
21800;neuilly crimolois;47.273535518;5.112727427;France
21400;nod sur seine;47.77285353;4.59824463;France
21910;noiron sous gevrey;47.188864915;5.08508035;France
21700;nuits st georges;47.14659194;4.938547235;France
21490;orgeux;47.364558205;5.15151447;France
21450;orret;47.60887188;4.701250579;France
21260;orville;47.560887274;5.217741354;France
21370;pasques;47.377799819;4.851793;France
21120;poiseul les saulx;47.577930533;4.98200027;France
21270;pontailler sur saone;47.30183098;5.412855754;France
21140;pont et massene;47.469033929;4.358028888;France
21350;posanges;47.421600843;4.526209252;France
21150;pouillenay;47.503297238;4.460638979;France
21390;precy sous thil;47.401240858;4.3167685;France
21190;puligny montrachet;46.947091788;4.759109401;France
21540;remilly en montagne;47.290328508;4.729283169;France
21220;reulle vergy;47.188519649;4.8964774040000005;France
21570;riel les eaux;47.98893583;4.680413288;France
21530;la roche en brenil;47.381808962;4.171292015;France
21350;saffres;47.366544356;4.580822499;France
21510;st germain le rocheux;47.755701686;4.66250177;France
21230;st pierre en vaux;47.056499669;4.529292945;France
21500;st remy;47.651551426;4.301138244;France
21320;ste sabine;47.187339843;4.621206885;France
21130;st seine en bache;47.116270528;5.377231654;France
21170;samerey;47.089991272;5.364989001;France
21910;saulon la rue;47.226273938;5.049911015;France
21120;saulx le duc;47.55047575;5.021936931;France
21380;savigny le sec;47.433787821;5.042452703;France
21430;savilly;47.121776524;4.278323511;France
21310;savolles;47.377255728;5.275276086;France
21260;selongey;47.594872957;5.199699518;France
21110;soirans;47.210269406;5.298465765;France
21350;soussey sur brionne;47.326939684;4.533826433;France
21430;sussey;47.214701115;4.372495889;France
21190;tailly;46.965383102;4.817096603;France
21270;tellecey;47.290368051;5.298321457;France
21220;ternant;47.200068883;4.833483748;France
21570;thoires;47.941219611;4.682348955;France
21340;thury;47.028255345;4.527385032;France
21130;tillenay;47.18956268;5.351594816;France
21440;trouhaut;47.391005002;4.763312049;France
21220;urcy;47.264348371;4.846753784;France
21400;vannaire;47.915596751;4.5698607540000005;France
21400;vanvey;47.841883898;4.72633461;France
21370;velars sur ouche;47.31841782;4.909254473;France
21390;vic sous thil;47.366958331;4.317209988;France
21270;vielverge;47.267919458;5.452905452;France
21700;villars fontaine;47.149574973;4.901042971;France
21140;villars et villenotte;47.508690789;4.378889697;France
21120;villecomte;47.499501248;5.018851336;France
21450;la villeneuve les convers;47.575777126;4.591744222;France
21140;villeneuve sous charigny;47.436145596;4.399624608;France
21120;villey sur tille;47.567744921;5.109382796;France
21690;villotte st seine;47.429718234;4.7130539670000005;France
21500;viserny;47.562369649;4.284225414;France
21700;vosne romanee;47.159707034;4.955601964;France
21290;voulaines les templiers;47.830393641;4.7761407;France
2420;bony;49.990651457;3.220766101;France
21560;arc sur tille;47.338758397;5.200858874;France
2160;bourg et comin;49.402887168;3.659773112;France
21700;argilly;47.068592327;5.024747349;France
2000;bourguignon sous montbavin;49.529088286;3.537037569;France
21170;aubigny en plaine;47.127737411;5.164587968;France
2400;brasles;49.057012938;3.42403027;France
21130;auxonne;47.188769135;5.414341888;France
2480;bray st christophe;49.774144853;3.141582586;France
21510;beaulieu;47.725468508;4.733641886;France
2210;brecy;49.140371179;3.423549684;France
21310;beaumont sur vingeanne;47.462096204;5.347585709;France
2210;breny;49.184262001;3.350004368;France
21200;beaune;47.025576567;4.837332378;France
2500;buire;49.907619378;4.056800114;France
21310;beire le chatel;47.417985549;5.213578936;France
2200;buzancy;49.310243779;3.347968795;France
21310;belleneuve;47.357498296;5.274054345;France
2260;la capelle;49.973535545;3.913302584;France
21500;benoisey;47.576889187;4.394799063;France
2490;caulaincourt;49.864831923;3.111035178;France
21350;beurizot;47.355565978;4.496175516;France
2320;cessieres suzy;49.558013373;3.48118285;France
21220;bevy;47.181886714;4.839545062;France
2880;chavigny;49.423064084;3.305405211;France
21310;beze;47.466173935;5.279200729;France
2860;chermizy ailles;49.463497769;3.720222977;France
21130;billey;47.142403316;5.419333695;France
2000;chevregny;49.465725095;3.593387726;France
21450;billy les chanceaux;47.552807572;4.734849153;France
2880;clamecy;49.428547607;3.363807361;France
21540;blaisy bas;47.369429248;4.735378967;France
21320;blancey;47.302443521;4.45981531;France
21690;source seine;47.488803885;4.696760719;France
21250;bonnencontre;47.086560546;5.142300288;France
21350;boussey;47.361381554;4.5415981940000005;France
21400;bremur et vaurois;47.729556831;4.609263197;France
21490;brognon;47.410459987;5.167987771;France
21400;buncey;47.817618901;4.5768700110000005;France
21510;busseaut;47.738604881;4.652764477;France
21580;busserotte et montenaille;47.662975953;4.979967455;France
21360;la bussiere sur ouche;47.226645175;4.699258629;France
21120;chaignay;47.47641997;5.059334299;France
21220;chamboeuf;47.227547273;4.902611275;France
21690;champrenault;47.399897791;4.681078429;France
21440;chanceaux;47.525457663;4.740473645;France
21350;charny;47.331625283;4.426160609;France
21400;charrey sur seine;47.952829103;4.53964668;France
21320;chateauneuf;47.219410354;4.651494434;France
21610;chaume et courchamp;47.580389843;5.360944654;France
21260;chazeuil;47.558356031;5.285555428;France
21540;chevannay;47.390913656;4.653419584;France
21250;corberon;47.010419339;5.009086484;France
21190;corcelles les arts;46.945432822;4.796477767;France
21910;corcelles les citeaux;47.169310047;5.083154661;France
21460;corrombles;47.518072499;4.202946473;France
21520;courban;47.916042505;4.739347962;France
21500;crepand;47.607043299;4.310004284;France
21360;crugey;47.181364989;4.681666854;France
21230;cussy le chatel;47.164462236;4.584557496;France
21121;daix;47.360475308;4.969138487;France
21220;detain et bruant;47.174737459;4.78765265;France
21270;drambon;47.33437116;5.379212117;France
21540;dree;47.343804139;4.695470345;France
21510;duesme;47.636968721;4.693116012;France
21120;echevannes;47.54742268;5.160449294;France
21290;essarois;47.757717838;4.794804435;France
21500;etais;47.701324785;4.439957105;France
21400;etrochey;47.88918412;4.520031537;France
21640;flagey echezeaux;47.159223964;4.982765188;France
21230;foissy;47.125151368;4.552123433;France
21450;fontaines en duesmois;47.649509782;4.53489255;France
21121;fontaine les dijon;47.347500029;5.024680391;France
21700;fussey;47.128563173;4.816944081;France
21140;genay;47.524548939;4.284428836;France
21250;glanon;47.03994688;5.10704485;France
21330;griselles;47.875859681;4.366062352;France
21250;grosbois les tichey;47.009392203;5.23598254;France
25320;abbans dessous;47.133644066;5.872795299;France
21290;gurgy le chateau;47.828585054;4.927911955;France
25310;abbevillers;47.427178279;6.922075563;France
21121;hauteville les dijon;47.375804434;4.980513731;France
25270;arc sous montenot;46.915171749;6.005864119;France
21270;heuilley sur saone;47.336140039;5.466019225;France
25150;autechaux roide;47.389276318;6.810998645;France
21250;jallanges;46.984532655;5.172618372;France
25720;avanne aveney;47.201655108;5.9557621990000005;France
21310;jancigny;47.383947105;5.422317798;France
25110;baume les dames;47.354300319;6.34312446;France
21110;labergement foigney;47.257486869;5.247621807;France
25380;belleherbe;47.263740562;6.650637647;France
21140;lantilly;47.542172647;4.378062518;France
25430;belvoir;47.320330835;6.616289923;France
21250;lechatelet;47.053108372;5.142430626;France
25420;berche;47.465980255;6.746962924;France
21520;lignerolles;47.902489216;4.887601319;France
25410;berthelange;47.201214992;5.780426556;France
21520;louesme;47.889336315;4.763793794;France
25000;besancon;47.255181494;6.019309828;France
21120;lux;47.488104094;5.217835902;France
25640;blarians;47.411804323;6.178688683;France
21320;maconge;47.225573152;4.577089304;France
25210;la bosse;47.1437117;6.64898873;France
21310;magny st medard;47.381144047;5.247393652;France
25360;bouclans;47.244707947;6.235312183;France
21410;malain;47.32078525;4.79419131;France
25250;bournois;47.488558803;6.49702847;France
21230;maligny;47.084238392;4.505907144;France
25320;boussieres;47.151628838;5.901267004;France
21700;marey les fussey;47.121976714;4.862683586;France
25640;braillans;47.31222585;6.086497911;France
2390;mont d origny;49.850896781;3.526844873;France
21120;marey sur tille;47.59417997;5.082084249;France
25440;breres;47.05776022;5.863897361;France
2540;montfaucon;48.946806275;3.432389762;France
21150;marigny le cahouet;47.455503264;4.453561903;France
25380;bretonvillers;47.215946125;6.617164131;France
2600;montgobert;49.289955909;3.173881398;France
21380;marsannay le bois;47.44062342;5.096647574;France
25240;brey et maison du bois;46.746807485;6.241344569;France
2210;montgru st hilaire;49.176189285;3.327121891;France
21510;mauvilly;47.709396164;4.703644119;France
25640;cendrey;47.398298953;6.245193749;France
2400;monthiers;49.108710064;3.294180596;France
21190;meloisey;47.034824113;4.720225434;France
25220;chalezeule;47.256765757;6.066057384;France
2250;montigny le franc;49.687518692;3.918828212;France
21430;menessaire;47.133486414;4.152733668;France
25170;champagney;47.254901313;5.892782613;France
2270;montigny sur crecy;49.7148469;3.583773712;France
21340;molinot;47.010730075;4.580296019;France
25240;chapelle des bois;46.606943416;6.108095211;France
2220;mont st martin;49.274753931;3.64211898;France
21360;montceau et echarnant;47.061344853;4.666698056;France
25140;charquemont;47.201962155;6.842410599;France
2360;morgny en thierache;49.754627779;4.076628621;France
21610;montigny mornay villeneuve vingeanne;47.568488741;5.450612855;France
25140;charquemont;47.201962155;6.842410599;France
2270;mortiers;49.693082652;3.663838907;France
21400;montliot et courcelles;47.894650025;4.560212903;France
25290;chassagne st denis;47.083352652;6.111262051;France
2160;muscourt;49.35924231;3.743982155;France
21290;montmoyen;47.730124796;4.793899388;France
25650;la chaux;47.019312756;6.414706314;France
2210;nanteuil notre dame;49.190781658;3.412286837;France
21150;mussy la fosse;47.52155977;4.44461305;France
25440;chenecey buillon;47.138387489;5.974503724;France
2300;la neuville en beine;49.676112934;3.156015287;France
21190;nantoux;47.034340011;4.759370439;France
25620;la chevillotte;47.22051727;6.156411489;France
2100;neuville st amand;49.820937959;3.333707351;France
21390;noidan;47.346351689;4.409463506;France
25870;chevroz;47.331321615;5.999890873;France
2860;neuville sur ailette;49.469077479;3.699581712;France
21340;nolay;46.959088382;4.619842173;France
25420;courcelles les montbeliard;47.49512739;6.78467435;France
2880;neuville sur margival;49.454931094;3.39840909;France
21490;norges la ville;47.406804735;5.069716471;France
25240;le crouzet;46.706754309;6.131650462;France
2390;neuvillette;49.855787614;3.468172172;France
21390;normier;47.363309662;4.433731118;France
25680;cuse et adrisans;47.483413505;6.389118261;France
2400;nogentel;49.014110066;3.403964932;France
21310;oisilly;47.416760566;5.361223298;France
25150;dambelin;47.369184131;6.667526827;France
2340;noircourt;49.669567584;4.094762329;France
21600;ouges;47.260593121;5.078237298;France
25490;dampierre les bois;47.50706732;6.915935431;France
2800;nouvion le comte;49.707807719;3.460229955;France
21250;pagny la ville;47.057953156;5.16928445;France
25560;dompierre les tilleuls;46.886896327;6.163811583;France
2860;nouvion le vineux;49.509683391;3.605346479;France
21270;perrigny sur l ognon;47.305383229;5.463721936;France
25550;dung;47.505908983;6.745592847;France
2290;nouvron vingre;49.433782177;3.1881099;France
21120;pichanges;47.456030796;5.157946945;France
25580;echevannes;47.070803178;6.236268823;France
2550;origny en thierache;49.886071205;4.011069622;France
21500;planay;47.737114943;4.375149091;France
25640;l ecouvotte;47.344156517;6.252960505;France
2160;oulches la vallee foulon;49.431232244;3.740339532;France
21450;poiseul la ville et laperriere;47.569545593;4.6641168440000005;France
25530;epenouse;47.213281121;6.397455452;France
2210;oulchy la ville;49.209875672;3.341054952;France
21630;pommard;47.013018816;4.795570903;France
25110;esnans;47.333337341;6.323316241;France
2210;oulchy le chateau;49.206838462;3.382242869;France
21440;poncey sur l ignon;47.490542969;4.751955954;France
25580;etalans;47.165237266;6.253709669;France
2210;oulchy le chateau;49.206838462;3.382242869;France
21130;pont;47.178798233;5.324181172;France
25460;etupes;47.506174565;6.87418589;France
2220;paars;49.330065715;3.603035232;France
21500;quincerot;47.617770535;4.271019567;France
25330;flagey;47.047104227;6.111753757;France
2160;paissy;49.426959295;3.702037259;France
21700;quincey;47.107380027;4.972096449;France
25660;fontain;47.190482288;6.031784871;France
2160;pargnan;49.394062196;3.703341702;France
21500;quincy le vicomte;47.617086748;4.239671156;France
25140;frambouhans;47.200359222;6.777178435;France
2000;pargny filain;49.463156372;3.53934125;France
21150;la roche vanneau;47.470691149;4.529799124;France
25770;franois;47.225194306;5.925559392;France
2470;passy en valois;49.162725907;3.184840116;France
21500;rougemont;47.670775251;4.257959812;France
25250;geney;47.483089214;6.565421519;France
2300;pierremande;49.566317224;3.25862202;France
21110;rouvres en plaine;47.238213703;5.138972827;France
25640;germondans;47.414083595;6.20027243;France
21200;ruffey les beaune;47.021937506;4.92245563;France
25190;glere;47.348257334;6.983756337;France
21260;sacquenay;47.584133252;5.321126276;France
25680;gouhelans;47.454215945;6.357158985;France
21540;st anthot;47.320515948;4.643106251;France
25520;goux les usiers;46.981021878;6.294050399;France
21530;st germain de modeon;47.372228118;4.124249389;France
25160;les grangettes;46.832363933;6.315441847;France
21500;st germain les senailly;47.597908155;4.281154538;France
25110;guillon les bains;47.315762888;6.394032102;France
21200;ste marie la blanche;46.974042264;4.891800839;France
25580;guyans durnes;47.129544672;6.243733817;France
21210;st martin de la mer;47.237473882;4.229583257;France
25390;guyans vennes;47.167578551;6.5837129260000005;France
21610;st maurice sur vingeanne;47.579115371;5.398248858;France
25300;houtaud;46.911849921;6.301140834;France
21700;st nicolas les citeaux;47.129029287;5.08444922;France
25110;hyevre paroisse;47.374017986;6.43290148;France
21140;semur en auxois;47.491002004;4.341535843;France
25110;hyevre paroisse;47.374017986;6.43290148;France
21140;souhey;47.487946354;4.420852998;France
25720;larnod;47.178626281;5.973427465;France
21110;tart;47.192656727;5.214099319;France
25580;lavans vuillafans;47.08029646;6.25790085;France
21150;thenissey;47.496481042;4.6188211500000005;France
25270;levier;46.959668626;6.11213352;France
21460;thoste;47.435586508;4.227003901;France
25390;loray;47.159449996;6.496787846;France
21460;torcy et pouligny;47.497135953;4.236215349;France
25260;lougres;47.471561341;6.683822844;France
21250;trugny;46.972021191;5.146050017;France
25650;maisons du bois lievremont;46.979971046;6.413893013;France
21350;uncey le franc;47.343787519;4.574884325;France
25650;maisons du bois lievremont;46.979971046;6.413893013;France
21320;vandenesse en auxois;47.223241582;4.620473047;France
25120;mancenans lizerne;47.25848706;6.77436117;France
21110;varanges;47.234904542;5.191566814;France
25170;mazerolles le salin;47.244250233;5.865925367;France
21260;vernois les vesvres;47.652763876;5.150622041;France
25250;mediere;47.463207849;6.602536929;France
21260;veronnes;47.535521283;5.238931352;France
25660;les monts ronds;47.163249504;6.064002076;France
21690;verrey sous salmaise;47.438444593;4.674579018;France
25870;moncey;47.361799381;6.135551844;France
21430;vianges;47.16554949;4.325129754;France
25680;mondon;47.448522447;6.312905664;France
21330;villedieu;47.907524081;4.383678401;France
25190;montecheroux;47.348726264;6.798454213;France
21700;villers la faye;47.108746761;4.884116014;France
25110;montivernage;47.311241144;6.421898621;France
21130;villers les pots;47.210801454;5.346704888;France
25190;montjoie le chateau;47.346058707;6.897284926;France
21400;villiers le duc;47.792475104;4.703567396;France
25270;montmahoux;46.983214277;6.032936961;France
21350;vitteaux;47.397212323;4.542376612;France
25160;montperreux;46.820708517;6.3444674370000005;France
21270;vonges;47.2891755;5.395622898;France
25440;myon;47.009644779;5.939465516;France
21640;vougeot;47.173717999;4.960133384;France
25360;naisey les granges;47.208566991;6.234317116;France
25360;nancray;47.249539677;6.177531079;France
25680;nans;47.476253888;6.410721751;France
25500;noel cerneux;47.104741344;6.659243894;France
25640;ollans;47.42068642;6.245382003;France
25120;orgeans blanchefontaine;47.266027852;6.753618492;France
25440;pessans;47.073241272;5.887283561;France
25160;la planee;46.841870063;6.272271604;France
25150;pont de roide vermondans;47.385051549;6.762837434;France
25410;pouilley francais;47.206147296;5.84278504;France
25550;presentevillers;47.501434143;6.726698642;France
25250;la pretiere;47.445757775;6.609667858;France
25640;le puy;47.345730017;6.230695456;France
25440;quingey;47.102477326;5.881250252;France
25430;randevillers;47.307114469;6.527263125;France
25370;rochejean;46.726566315;6.303948741;France
25440;ronchaux;47.042909007;5.903550422;France
2160;la ville aux bois les pontavert;49.4267508;3.85073597;France
25410;roset fluans;47.153801543;5.832528905;France
25680;rougemont;47.479650275;6.347947078;France
25210;le russey;47.155171773;6.735197536;France
25270;ste anne;46.950284689;5.984155982;France
25520;st gorgon main;47.017102291;6.335944718;France
25113;ste marie;47.501805036;6.694864462;France
25260;st maurice colombier;47.43178917;6.65022211;France
25430;sancey;47.293416609;6.5715831;France
25330;saraz;46.992522529;5.974924403;France
25110;sechin;47.339600802;6.285766154;France
25230;seloncourt;47.457162512;6.8643015940000005;France
25330;silley amancey;47.033276121;6.136438387;France
25470;thiebouhans;47.271229264;6.843904415;France
25640;la tour de scay;47.382347774;6.224943209;France
25620;trepot;47.169724476;6.169640864;France
25680;trouvans;47.420121776;6.34763323;France
25340;uzelle;47.465667182;6.442601884;France
25220;vaire;47.276475492;6.152976011;France
25220;vaire;47.276475492;6.152976011;France
25640;val de roulans;47.360955918;6.268618946;France
25380;vaucluse;47.248742495;6.690798502;France
25360;vaudrivillers;47.283470327;6.427787352;France
25110;verne;47.397086282;6.351358205;France
25580;vernierfontaine;47.110053424;6.295130641;France
25430;vernois les belvoir;47.321311767;6.640120059;France
5800;aspres les corps;44.812759793;5.999525437;France
5800;la chapelle en valgaudemar;44.816614679;6.242955361;France
5800;villar loubiere;44.836878433;6.135695743;France
7000;ajoux;44.754643506;4.485312969;France
7120;balazuc;44.508690596;4.372446244;France
7120;chauzon;44.491563996;4.344798631;France
7000;creysseilles;44.75964153;4.530035263;France
7110;laboule;44.595578809;4.169046101;France
7110;loubaresse;44.590983026;4.051113345;France
7000;lyas;44.756883688;4.59654574;France
7140;malarce sur la thines;44.47842111;4.050331709;France
7160;belsentes;44.915172091;4.501873879;France
7150;orgnac l aven;44.309810304;4.423400895;France
7120;ruoms;44.447681335;4.347652356;France
7160;st barthelemy le meil;44.884997366;4.478363421;France
7160;st christol;44.869620158;4.439331116;France
7190;st julien du gua;44.771007368;4.440454599;France
7140;st pierre st jean;44.48245206;4.101861085;France
7190;st sauveur de montagut;44.82079012;4.572466396;France
7110;tauriers;44.551893536;4.273164049;France
7130;toulaud;44.901951399;4.792004694;France
7110;uzer;44.517951275;4.32664358;France
7140;les vans;44.392227568;4.114704212;France
7140;les vans;44.392227568;4.114704212;France
25340;abbenans;47.496247466;6.450747182;France
25300;les allies;46.94881092;6.448452159;France
25340;anteuil;47.37595213;6.5763163030000005;France
25400;arbouans;47.488799169;6.808337068;France
25610;arc et senans;47.035433492;5.769789549;France
25110;autechaux;47.380245304;6.384779357;France
25720;avanne aveney;47.201655108;5.9557621990000005;France
25490;badevel;47.501723856;6.938674361;France
25380;battenans varin;47.241932361;6.715310844;France
25250;beutal;47.474672092;6.635832866;France
25250;blussangeaux;47.434842888;6.618933477;France
25250;blussans;47.41225509;6.62011575;France
25870;bonnay;47.329493241;6.044578481;France
25560;boujailles;46.884104444;6.07868104;France
25530;bremondans;47.231994724;6.396897581;France
25120;les breseux;47.274951128;6.802003552;France
25110;bretigney notre dame;47.309181266;6.302898002;France
25440;buffard;47.032839267;5.827897192;France
25520;bugny;46.998248969;6.357857973;France
25170;burgille;47.261567725;5.781537106;France
25290;cademene;47.094257945;6.026922135;France
25300;chaffois;46.917263306;6.256433027;France
25220;chaleze;47.261390184;6.094894916;France
25640;champoux;47.340852074;6.13559846;France
25470;charmauvillers;47.231685361;6.917276817;France
25380;charmoille;47.239619958;6.668304439;France
25240;chatelblanc;46.665307088;6.10658003;France
25870;chatillon le duc;47.305284851;6.001151018;France
25170;chaucenne;47.28485;5.895165901;France
25530;chaux les passavant;47.235648582;6.350494314;France
25500;la chenalotte;47.108144788;6.687951991;France
25340;pays de clerval;47.390020699;6.50844951;France
25410;corcelles ferrieres;47.226772402;5.804877522;France
25170;courchapon;47.258386819;5.751185715;France
25380;cour st maurice;47.263934609;6.709847041;France
25340;crosey le grand;47.34709352;6.52691411;France
25420;dampierre sur le doubs;47.4668777;6.732208503;France
25190;dampjoux;47.338762709;6.748695648;France
25410;dannemarie sur crete;47.206830664;5.865289725;France
25870;devecey;47.323598235;6.017672644;France
25550;echenans;47.527337056;6.69313515;France
25620;etalans;47.165237266;6.253709669;France
25330;eternoz;47.016116016;6.001525645;France
25330;eternoz;47.016116016;6.001525645;France
25800;etray;47.12531134;6.334201836;France
25520;evillers;46.995349576;6.222175556;France
25640;flagey rigney;47.413979915;6.219722806;France
25390;flangebouche;47.122350055;6.471895129;France
25190;fleurey;47.301041945;6.777469763;France
25340;fontaine les clerval;47.421802254;6.469327234;France
25210;les fontenelles;47.192383926;6.754190551;France
25110;fourbanne;47.335361383;6.305301846;France
25140;fournet blancheroche;47.166173729;6.825775419;France
25560;frasne;46.851859947;6.146036173;France
25660;gennes;47.247670833;6.131188698;France
25680;gondenans les moulins;47.465111132;6.382901957;France
25570;grand combe chateleu;47.016080357;6.560013158;France
25380;la grange;47.284354888;6.670531074;France
25370;les hopitaux vieux;46.803496233;6.391184909;France
25110;hyevre magny;47.360892584;6.433752187;France
25550;issans;47.526958746;6.732001749;France
25530;landresse;47.26067403;6.488841889;France
25260;longevelle sur doubs;47.459655584;6.649703274;France
25360;magny chatelard;47.233949042;6.328106748;France
25330;malans;47.044524834;6.029357811;France
25160;malbuisson;46.798960127;6.311606472;France
25160;malpas;46.827677934;6.28889771;France
25350;mandeure;47.432636734;6.810349362;France
25210;le memont;47.1608061;6.688628299;France
25680;mesandans;47.43007922;6.37991476;France
25370;metabief;46.764784935;6.353793751;France
25680;montagney servigney;47.466051358;6.303669247;France
25190;montandon;47.299082048;6.834865521;France
25650;montbenoit;46.983616285;6.46576837;France
25170;le moutherot;47.243143755;5.731519214;France
25580;les premiers sapins;47.082628772;6.339414929;France
25190;noirefontaine;47.346431572;6.764867378;France
25170;noironte;47.273632639;5.870493972;France
25220;novillars;47.28772022;6.12913962;France
25390;orchamps vennes;47.110906714;6.513493444;France
25290;ornans;47.101387882;6.151533154;France
25530;orsans;47.251507122;6.379961601;France
25320;osselle routelle;47.153762847;5.861295668;France
25640;ougney douvot;47.319936459;6.275287232;France
2450;boue;50.011550543;3.714459526;France
25160;oye et pallet;46.851935344;6.338959037;France
2140;la bouteille;49.878288472;3.96176401;France
25440;palantine;47.099196847;5.941665017;France
2140;braye en thierache;49.768049649;3.962134828;France
25870;palise;47.365930773;6.092386055;France
2880;braye;49.422387936;3.376975383;France
25390;plaimbois vennes;47.184099906;6.5471972560000005;France
2130;bruyeres sur fere;49.199671957;3.445415703;France
25440;le val;47.063051358;5.906786548;France
2620;buironfosse;49.958217815;3.83827898;France
25110;pont les moulins;47.326040055;6.367201665;France
2140;burelles;49.768802224;3.911694741;France
25680;puessans;47.434399963;6.324038768;France
2330;celles les conde;49.01485859;3.569453258;France
25150;remondans vaivre;47.379252444;6.708361041;France
2370;celles sur aisne;49.415647667;3.475187219;France
25330;reugney;47.010509406;6.152488586;France
2320;cessieres suzy;49.558013373;3.48118285;France
25640;rignosot;47.38384756;6.199494334;France
2200;chacrise;49.299932209;3.397501152;France
25220;roche lez beaupre;47.281366784;6.107585245;France
2860;chamouille;49.472574306;3.670803217;France
25680;rognon;47.419200291;6.308284807;France
2570;la chapelle sur chezy;48.949543456;3.376327211;France
25680;romain;47.44400234;6.380377874;France
2850;le charmel;49.112431003;3.541566223;France
25240;rondefontaine;46.73323363;6.182568894;France
2370;chavonne;49.407528707;3.562380284;France
25380;rosureux;47.213894288;6.684100649;France
2860;cheret;49.514292728;3.686902535;France
25340;st georges armont;47.404102944;6.550174357;France
2360;chery les rozoy;49.722465319;4.101513436;France
25190;st hippolyte;47.312466033;6.812169842;France
2250;chevennes;49.818031969;3.736290274;France
25360;st juan;47.289791396;6.343194133;France
2570;chezy sur marne;48.984427277;3.382357064;France
25160;st point lac;46.810826279;6.295717993;France
2350;chivres en laonnois;49.626903051;3.855468948;France
25440;samson;47.053562317;5.879558038;France
2210;chouy;49.216959296;3.247470895;France
25240;sarrageois;46.703887211;6.2345685920000005;France
2260;clairfontaine;49.974089631;3.986389624;France
25270;septfontaines;46.975950025;6.178274175;France
25770;serre les sapins;47.24017513;5.934566765;France
25430;servin;47.305642351;6.471393097;France
25510;la sommette;47.191987349;6.509592635;France
25250;soye;47.45205446;6.503713059;France
25870;tallenay;47.305858665;6.021534543;France
9240;aigues juntes;43.050400025;1.471458393;France
25620;tarcenay foucherans;47.158432375;6.123876067;France
9800;argein;42.923755653;0.990460504;France
25680;tournans;47.399387903;6.311686054;France
9120;artix;43.06660141;1.562149832;France
25470;trevillers;47.283918503;6.874611072;France
9100;arvigna;43.059194027;1.72896982;France
25220;vaire;47.276475492;6.152976011;France
9110;ascou;42.719585461;1.930831083;France
25870;valleroy;47.385533386;6.124738373;France
9800;aucazein;42.920698535;0.966276035;France
25190;valoreille;47.294026917;6.740852927;France
9800;augirein;42.910788832;0.916933324;France
25230;vandoncourt;47.458935403;6.906726062;France
9220;auzat;42.70207511;1.443094286;France
25380;vauclusotte;47.277316105;6.733645196;France
9250;axiat;42.799326321;1.760803165;France
25430;vellerot les belvoir;47.348087089;6.591167601;France
9110;ax les thermes;42.686666996;1.818050343;France
25530;vellerot les vercel;47.246318355;6.442228586;France
9230;bagert;43.079639124;1.070089761;France
25110;vergranne;47.40927405;6.391194398;France
9800;balagueres;42.967660998;1.017477618;France
25750;le vernoy;47.567042675;6.671520172;France
9700;la bastide de lordat;43.139634572;1.71491945;France
25600;vieux charmont;47.523415881;6.843516801;France
9000;baulou;43.017685603;1.5419448020000002;France
9800;buzan;42.956738398;0.960131893;France
9350;campagne sur arize;43.119839747;1.321466475;France
9130;carla bayle;43.157661251;1.3729059380000002;France
9100;le carlaret;43.131173395;1.694136768;France
9800;castillon en couserans;42.916594803;1.055073703;France
9160;caumont;43.02401843;1.079753911;France
9250;caussou;42.772186683;1.822240933;France
9250;caychax;42.807965084;1.727685748;France
9230;contrazy;43.05778681;1.206512236;France
9000;cos;42.980009049;1.56912078;France
2110;montigny en arrouaise;49.912004001;3.483380112;France
2330;montlevon;48.962881745;3.5153661;France
2100;morcourt;49.875885119;3.33376442;France
2290;morsain;49.461530468;3.190773035;France
2160;moulins;49.42040219;3.679437925;France
2160;moussy verneuil;49.41243455;3.636578979;France
2140;nampcelles la cour;49.776677946;4.001545141;France
2420;nauroy;49.95109226;3.259127291;France
2250;la neuville bosmont;49.714499279;3.833211434;France
2250;la neuville housset;49.788415895;3.731426487;France
2450;la neuville les dorengt;49.983119397;3.686519947;France
2310;nogent l artaud;48.942896009;3.333207104;France
2270;nouvion et catillon;49.707297768;3.493588723;France
2120;noyales;49.907819967;3.538918361;France
2160;oeuilly;49.393123668;3.68229876;France
2600;oigny en valois;49.213499679;3.13020509;France
2200;pasly;49.402312425;3.298046924;France
2120;villers les guise;49.925063029;3.681964652;France
2140;voulpaix;49.838727415;3.832469429;France
7160;accons;44.888443768;4.392010929;France
7160;le chambon;44.829599551;4.298592618;France
7130;chateaubourg;44.986879772;4.838348977;France
7000;flaviac;44.750664359;4.65997562;France
7000;gourdon;44.729580239;4.454810316;France
7150;lagorce;44.444868859;4.431666974;France
7170;lavilledieu;44.58200991;4.448347688;France
7170;lussas;44.619277692;4.466052275;France
7140;malarce sur la thines;44.47842111;4.050331709;France
7140;malbosc;44.349800615;4.072715613;France
7000;pourcheres;44.739406927;4.50434883;France
7120;pradons;44.472944949;4.375930314;France
7100;roiffieux;45.219327345;4.64968221;France
7160;st andeol de fourchades;44.844720573;4.287806192;France
7170;st germain;44.553431519;4.448582198;France
7000;st julien en st alban;44.758254218;4.693271935;France
7170;st laurent sous coiron;44.664414441;4.484743139;France
7170;st maurice d ibie;44.48390513;4.482658219;France
7150;salavas;44.388184946;4.3668823020000005;France
7140;les salelles;44.436083578;4.098851871;France
7110;vinezac;44.546616599;4.332433589;France
9320;aleu;42.894162766;1.267264749;France
9240;allieres;43.038911091;1.364164827;France
9130;artigat;43.143173579;1.446726199;France
9800;audressein;42.930816184;1.01954447;France
9350;la bastide de besplas;43.168847066;1.273544037;France
9160;la bastide du salat;43.060987466;1.000066549;France
9230;bedeille;43.083738717;1.101001265;France
9300;belesta;42.89340096;1.952847818;France
9000;benac;42.958095461;1.528254109;France
9320;biert;42.904442272;1.30892473;France
9100;bonnac;43.172562491;1.587740674;France
9350;les bordes sur arize;43.113444102;1.366156723;France
9000;le bosc;42.933042002;1.44546208;France
9240;cadarcet;43.013967126;1.5019371970000002;France
9700;cante;43.248578398;1.523887788;France
9400;capoulet et junac;42.79182688;1.576017206;France
9000;celles;42.916741057;1.696810775;France
58230;alligny en morvan;47.20977196;4.17346003;France
58190;amazy;47.383317688;3.560930747;France
58350;arbourse;47.249162568;3.224686548;France
58700;arthel;47.24355899;3.406359261;France
58190;asnois;47.397219844;3.587487468;France
58420;beaulieu;47.258574243;3.535147811;France
58420;beaulieu;47.258574243;3.535147811;France
58310;bitry;47.492790837;3.084760091;France
58310;bouhy;47.48666539;3.183384981;France
58140;brassy;47.263841907;3.933904396;France
58400;bulcy;47.241598985;3.028595671;France
58420;bussy la pesle;47.255226412;3.474130771;France
58440;la celle sur loire;47.48528794;2.934597062;France
58700;la celle sur nievre;47.218491047;3.202110367;France
58210;la chapelle st andre;47.400764169;3.324716523;France
58350;chateauneuf val de bargis;47.284115285;3.21602077;France
58110;chatillon en bazois;47.055289103;3.658221396;France
58700;chazeuil;47.27811588;3.403602022;France
58500;chevroches;47.444714407;3.544139572;France
58170;chiddes;46.862065422;3.929577051;France
58220;ciez;47.440131269;3.163259134;France
58460;corvol l orgueilleux;47.432678388;3.367951485;France
58220;couloutre;47.395268846;3.220376483;France
58210;courcelles;47.402608766;3.394558513;France
58210;cuncy les varzy;47.362132212;3.458381692;France
58310;dampierre sous bouhy;47.507132935;3.130006282;France
58700;arzembouy;47.247059836;3.359730906;France
58300;decize;46.808744282;3.466100371;France
58170;avree;46.823036422;3.878739759;France
58300;devay;46.805312431;3.541961075;France
58300;avril sur loire;46.808830067;3.362002419;France
58220;donzy;47.380034622;3.113587515;France
58190;bazoches;47.368940058;3.794303602;France
58160;la fermete;46.956348511;3.328678168;France
58110;bazolles;47.145492722;3.607838157;France
58240;fleury sur loire;46.830791123;3.315639449;France
58500;billy sur oisy;47.484229135;3.401775662;France
58270;frasnay reugny;46.992377142;3.527457416;France
58460;breugnon;47.427258076;3.457596519;France
58230;gien sur cure;47.145690562;4.090096629;France
58800;cervon;47.24000234;3.752410248;France
58700;giry;47.214321895;3.336673376;France
58220;cessy les bois;47.33207796;3.215813458;France
58130;guerigny;47.092680596;3.212614895;France
58140;chalaux;47.332970847;3.912647549;France
58290;isenay;46.918162577;3.710471885;France
58420;challement;47.313268857;3.594860881;France
58250;lanty;46.802757585;3.829411064;France
58350;chasnay;47.239315736;3.171707015;France
58230;lavault de fretoy;47.105493156;4.021180822;France
58120;chateau chinon ville;47.062663623;3.927685874;France
58700;lurcy le bourg;47.165312075;3.397192952;France
58120;chateau chinon campagne;47.056030507;3.940813828;France
58190;la maison dieu;47.421621709;3.667419793;France
58120;chatin;47.102931601;3.882450813;France
58290;maux;47.038387599;3.773637271;France
58400;chaulgnes;47.129164013;3.106886102;France
58410;menestreau;47.409716618;3.261419478;France
58420;chevannes changy;47.29147683;3.452712335;France
58440;myennes;47.45391066;2.943309013;France
58110;chougny;47.089535144;3.757436994;France
58190;neuffontaines;47.349801841;3.740617904;France
58500;clamecy;47.461166231;3.5108198980000003;France
58250;la nocle maulaix;46.763064642;3.763700652;France
58500;clamecy;47.461166231;3.5108198980000003;France
58190;nuars;47.388031573;3.710217095;France
58210;corvol d embernard;47.294590781;3.398815426;France
58110;ougny;47.077385925;3.711675229;France
58200;cosne cours sur loire;47.402826949;2.942653065;France
58130;vaux d amognes;47.072599498;3.291356498;France
58660;coulanges les nevers;47.013551406;3.196980952;France
58230;planchez;47.142559094;4.026250975;France
58410;entrains sur nohain;47.460699051;3.272957748;France
58170;poil;46.873221638;4.055848726;France
58250;fours;46.809134716;3.720288263;France
58140;pouques lormes;47.324329206;3.777652696;France
58150;garchy;47.277306123;3.053373604;France
58250;remilly;46.828054078;3.793374743;France
58150;garchy;47.277306123;3.053373604;France
58230;st agnan;47.323190038;4.09103774;France
58470;gimouille;46.94108159;3.098641224;France
58190;st aubin des chaumes;47.390253916;3.757296513;France
58230;gouloux;47.230617309;4.083544075;France
58200;st loup des bois;47.453142953;3.006645504;France
58420;grenois;47.321616445;3.52132377;France
58140;st martin du puy;47.330764981;3.875148981;France
58290;limanton;46.980313209;3.740198216;France
58150;st martin sur nohain;47.358243813;2.988013287;France
58270;limon;46.965044497;3.384551748;France
58300;st parize en viry;46.753633779;3.366789085;France
58470;magny cours;46.889690622;3.154020491;France
58490;st parize le chatel;46.850549482;3.184554383;France
58800;magny lormes;47.291283287;3.74783904;France
58240;st pierre le moutier;46.7913793;3.139970159;France
58400;la marche;47.148607096;3.039767055;France
58150;st quentin sur nohain;47.324288887;3.021680276;France
58180;marzy;46.983916974;3.092264106;France
58420;st reverien;47.203572316;3.507668595;France
58210;menou;47.368243829;3.282949624;France
58270;st sulpice;47.062646179;3.360067272;France
58170;millay;46.834875506;3.990725841;France
58240;toury sur jour;46.729304902;3.255400724;France
58250;montambert;46.770768886;3.683821151;France
58400;tronsanges;47.116948175;3.050715726;France
58700;montenoison;47.218462617;3.420872732;France
58290;vandenesse;46.912626096;3.777667828;France
58420;moraches;47.284929424;3.544487515;France
58700;murlin;47.195657335;3.173197702;France
58300;neuville les decize;46.775340165;3.301554012;France
58000;nevers;46.98810691;3.157096352;France
58500;ouagne;47.402208169;3.498267676;France
58130;vaux d amognes;47.072599498;3.291356498;France
58210;parigny la rose;47.330942801;3.453923867;France
58320;pougues les eaux;47.075902939;3.096812753;France
58190;ruages;47.311491531;3.683376533;France
58140;st andre en morvan;47.398624249;3.855867372;France
58000;st eloi;46.990884468;3.222460224;France
58300;st germain chassenay;46.78151889;3.397772641;France
58340;st gratien savigny;46.901095025;3.658618814;France
58120;st leger de fougeret;47.008350428;3.907859712;France
58200;st pere;47.404149636;2.97732471;France
58190;talon;47.334867851;3.556439597;France
58170;tazilly;46.758831709;3.913735767;France
58250;thaix;46.849073166;3.713877806;France
58400;varennes les narcy;47.212071202;3.065557067;France
58300;verneuil;46.860319785;3.582948335;France
58190;vignol;47.358290781;3.662384982;France
58500;villiers sur yonne;47.413360073;3.548914295;France
58420;vitry lache;47.191631481;3.568881464;France
58200;alligny cosne;47.443657906;3.072595102;France
58500;armes;47.463168788;3.562102251;France
58420;beaulieu;47.258574243;3.535147811;France
58700;beaumont la ferriere;47.183494728;3.235449273;France
58210;beuvron;47.351202867;3.496963052;France
58420;brinon sur beuvron;47.28466583;3.489528991;France
58340;cercy la tour;46.84957697;3.646195738;France
58000;challuy;46.94196697;3.140253373;France
58240;chantenay st imbert;46.739394926;3.171626668;France
58400;la charite sur loire;47.183451169;3.029649474;France
58300;charrin;46.798540174;3.595994791;France
58270;cizely;46.983172704;3.468877625;France
58800;la collancelle;47.180784763;3.646734517;France
58200;cosne cours sur loire;47.402826949;2.942653065;France
58330;crux la ville;47.153722384;3.5260546;France
58340;diennes aubigny;46.913382175;3.576134717;France
58530;dornecy;47.442447644;3.589715499;France
58390;dornes;46.719126438;3.337662074;France
58160;druy parigny;46.880612662;3.37119826;France
58110;dun sur grandry;47.089633295;3.799692128;France
58270;fertreve;46.963013686;3.589817885;France
58170;flety;46.799334764;3.906765196;France
58190;flez cuzy;47.358622938;3.633784591;France
58600;fourchambault;47.016610566;3.09118738;France
58140;gacogne;47.233255529;3.878294094;France
21700;agencourt;47.125046661;4.985308654;France
58320;germigny sur loire;47.077830602;3.047409664;France
21360;antheuil;47.17635415;4.749018229;France
58370;glux en glenne;46.95631249;4.021261982;France
21230;arnay le duc;47.127420484;4.479678909;France
58420;guipy;47.228569925;3.579477987;France
21500;arrans;47.690185682;4.328104867;France
58240;langeron;46.816889689;3.08335931;France
21500;asnieres en montagne;47.713292448;4.292182634;France
58370;larochemillay;46.890330482;3.985133071;France
21380;asnieres les dijon;47.386464651;5.045358406;France
58240;livry;46.768478515;3.072114404;France
21500;athie;47.562413813;4.258410718;France
58140;marigny l eglise;47.345424056;3.941314834;France
21360;auxant;47.130635408;4.620400352;France
58240;mars sur allier;46.858068493;3.087669535;France
21450;baigneux les juifs;47.600910696;4.651478467;France
58800;marigny sur yonne;47.287413392;3.642766651;France
21330;balot;47.820029859;4.443301338;France
58120;montigny en morvan;47.144198499;3.861967533;France
21410;barbirey sur ouche;47.252354232;4.740516493;France
58340;montigny sur canne;46.942683058;3.657779219;France
21570;belan sur ource;47.95175427;4.638292812;France
58290;moulins engilbert;46.973179088;3.81115136;France
21360;bessey la cour;47.103087271;4.605311663;France
58350;nannay;47.261221075;3.164527522;France
21610;bourberain;47.508892517;5.292565724;France
58420;neuilly;47.240401808;3.514947125;France
21690;boux sous salmaise;47.473309175;4.644028926;France
58700;nolay;47.117951414;3.332030761;France
21200;bouze les beaune;47.053947691;4.771815537;France
58500;oisy;47.471601089;3.451824028;France
21430;brazey en morvan;47.172389807;4.276909792;France
58700;oulon;47.198019524;3.400980405;France
21490;bretigny;47.39375544;5.099781063;France
58130;poiseux;47.120431081;3.239596674;France
21220;brochon;47.238845198;4.956492654;France
58150;pouilly sur loire;47.280458238;2.98219177;France
21250;broin;47.086768179;5.103987952;France
58500;pousseaux;47.49880678;3.54090418;France
21220;broindon;47.195718941;5.040273421;France
58700;premery;47.173127465;3.321005995;France
21330;cerilly;47.856047438;4.489563791;France
58360;preporche;46.936153878;3.863849439;France
21110;chambeire;47.282295403;5.270747543;France
58330;st benin des bois;47.118802161;3.405034668;France
21230;champignolles;47.051010674;4.567762436;France
58270;st firmin;47.039432322;3.39401918;France
21330;channay;47.89086093;4.319915315;France
58330;st franchy;47.151381643;3.455054988;France
21150;chassey;47.473966075;4.443788599;France
58300;st hilaire fontaine;46.774695842;3.636251518;France
21320;chatellenot;47.23753912;4.487781795;France
58360;st honore les bains;46.899729088;3.85382832;France
21520;la chaume;47.881414587;4.8230220720000005;France
58150;st laurent l abbaye;47.337379573;2.994473315;France
21400;chemin d aisey;47.733347532;4.5510790320000005;France
58350;st malo en donziois;47.311382641;3.277108084;France
21310;cheuge;47.389945753;5.380962036;France
58310;st verain;47.487113662;3.033920646;France
21220;chevannes;47.158742541;4.833815229;France
58800;sardy les epiry;47.195448041;3.690580289;France
21820;chivres;46.967887061;5.091998353;France
58160;sauvigny les bois;46.97672732;3.265716918;France
21390;clamerey;47.387224301;4.422171294;France
58330;saxi bourdon;47.055890853;3.487179042;France
21230;clomot;47.192385079;4.486757718;France
58000;sermoise sur loire;46.947385277;3.182679908;France
21160;corcelles les monts;47.303910122;4.942110198;France
58700;sichamps;47.155619362;3.276965748;France
21250;corgengoux;46.988326741;5.011427312;France
58500;surgy;47.513374951;3.505949908;France
21700;corgoloin;47.081478899;4.935019519;France
58190;tannay;47.361561156;3.58107069;France
21340;cormot vauchignon;46.977907233;4.646451171;France
58260;thianges;46.911941589;3.491554174;France
21340;cormot vauchignon;46.977907233;4.646451171;France
58300;toury lurcy;46.737569207;3.424193407;France
21460;corsaint;47.547053971;4.202220492;France
58130;urzy;47.059274134;3.201544258;France
21500;courcelles les montbard;47.591941177;4.391748131;France
58210;varzy;47.357149163;3.386885499;France
21560;couternon;47.330228989;5.150500059;France
58150;vielmanay;47.277944297;3.110117248;France
21230;culetre;47.146750851;4.568212044;France
21220;curtil vergy;47.171007562;4.894485728;France
21360;cussy la colonne;47.042640262;4.646873181;France
21190;ebaty;46.929683866;4.780395304;France
21540;echannay;47.280878732;4.679657817;France
21170;esbarres;47.090966782;5.198770737;France
21121;etaules;47.41056133;4.951148088;France
21110;fauverney;47.262873128;5.15012902;France
21220;fixin;47.248291425;4.965561398;France
21160;flavignerot;47.277407569;4.919079743;France
21330;fontaines les seches;47.78485468;4.3598096680000005;France
21460;forleans;47.471226573;4.20645623;France
21500;fresnes;47.609911576;4.438632153;France
21700;gerland;47.102192833;5.022627853;France
21520;les goulles;47.878219933;4.905768572;France
21290;gurgy la ville;47.85190111;4.938713642;France
21150;hauteroche;47.489019637;4.569870969;France
21120;is sur tille;47.525847076;5.102747147;France
21110;izier;47.28099196;5.196089588;France
21340;val mont;47.032145363;4.615683288;France
21140;juilly;47.490146382;4.400976955;France
21230;lacanche;47.074603804;4.555459771;France
21110;longchamp;47.261851966;5.295973334;France
21170;losne;47.077626132;5.275951742;France
21700;magny les villers;47.094402711;4.8752979100000005;France
21130;les maillys;47.145929486;5.330026944;France
21430;manlay;47.120638264;4.333082953;France
21270;marandeuil;47.345224268;5.340269419;France
21350;marcilly et dracy;47.405767676;4.496207855;France
21320;marcilly ogny;47.248410215;4.402898279;France
21120;marcilly sur tille;47.512175769;5.129244232;France
21500;marmagne;47.639873578;4.382559787;France
21350;massingy les vitteaux;47.39549205;4.589833707;France
21290;menesble;47.778130542;4.901702088;France
21540;mesmont;47.312214866;4.743149971;France
21700;meuilley;47.141202245;4.878802538;France
21190;meursault;46.970390327;4.7725158830000005;France
21510;minot;47.662501954;4.871592159;France
21330;molesme;47.946888364;4.382373238;France
21120;moloy;47.53932296;4.922123542;France
21210;molphey;47.335996921;4.206544693;France
21190;monthelie;46.999251532;4.7620148360000005;France
21390;montigny st barthelemy;47.420242268;4.262018786;France
21170;montot;47.152562427;5.243502459;France
21210;la motte ternant;47.316424838;4.327350969;France
21330;nesle et massoult;47.778007346;4.426698256;France
21800;neuilly crimolois;47.273535518;5.112727427;France
21400;noiron sur seine;47.938922299;4.469387052;France
21510;origny;47.712682887;4.632659231;France
21700;premeaux prissey;47.105047387;4.942821951;France
21370;prenois;47.375051494;4.906178029;France
21560;remilly sur tille;47.307271239;5.230887045;France
21320;rouvres sous meilly;47.206066531;4.590389276;France
21410;st jean de boeuf;47.211490928;4.763496344;France
21450;st marc sur seine;47.699908034;4.600441426;France
21440;st martin du mont;47.415109499;4.812004433;France
21190;st romain;47.012332787;4.7029572040000005;France
21170;st symphorien sur saone;47.091453506;5.316872612;France
21580;salives;47.604896657;4.900489154;France
21690;salmaise;47.45516611;4.674991733;France
21380;saussy;47.461967916;4.980731723;France
21420;savigny les beaune;47.08054539;4.803292183;France
21800;sennecey les dijon;47.292137703;5.104660326;France
21550;ladoix serrigny;47.062217247;4.912111253;France
21530;sincey les rouvray;47.433479063;4.13109878;France
21270;soissons sur nacey;47.249949013;5.461291223;France
21540;sombernon;47.310753751;4.702391839;France
21430;sussey;47.214701115;4.372495889;France
21310;tanay;47.413558501;5.277803262;France
21210;thoisy la berchere;47.260407982;4.332304731;France
21360;thomirey;47.087507901;4.58666432;France
21110;thorey en plaine;47.214789255;5.137108506;France
21120;til chatel;47.51913403;5.179487802;France
21310;trocheres;47.348150847;5.3142460190000005;France
21540;turcey;47.408786742;4.719014611;France
21121;val suzon;47.426536873;4.908010201;France
21490;varois et chaignot;47.355451974;5.125299552;France
21360;veilly;47.126663321;4.597033643;France
21540;verrey sous dree;47.367605251;4.688511238;France
21350;vesvres;47.376644905;4.529063631;France
21360;vic des pres;47.109057677;4.635959982;France
21460;vieux chateau;47.47089814;4.135832887;France
21310;vievigne;47.435920381;5.240104785;France
21230;vievy;47.057531804;4.45638855;France
21400;villers patras;47.935315332;4.546735754;France
21130;villers rotin;47.156836605;5.407294125;France
21430;villiers en morvan;47.143012172;4.259600926;France
25750;aibre;47.551605126;6.698455192;France
25360;aissey;47.269953499;6.326897797;France
25490;allenjoie;47.535796969;6.894147008;France
25550;allondans;47.522238979;6.751923125;France
25330;amathay vesigneux;47.023097865;6.195852083;France
25330;amondans;47.071496119;6.035189509;France
25340;anteuil;47.37595213;6.5763163030000005;France
25250;appenans;47.451386696;6.568703362;France
25750;arcey;47.519242455;6.651170498;France
25170;audeux;47.258248301;5.868240246;France
25560;bannans;46.898959119;6.238381747;France
25210;le barboux;47.122119487;6.726519269;France
25640;battenans les mines;47.405019372;6.27291229;France
25110;baume les dames;47.354300319;6.34312446;France
25470;belfays;47.259422245;6.904382681;France
25500;le belieu;47.121490176;6.63136988;France
25530;belmont;47.219064254;6.362142692;France
25720;beure;47.206859334;6.005797647;France
25310;blamont;47.390232778;6.855850104;France
25680;bonnal;47.506886386;6.364785376;France
25560;bouverans;46.840671913;6.210685432;France
25640;breconchaux;47.342289469;6.270947426;France
25170;burgille;47.261567725;5.781537106;France
25170;burgille;47.261567725;5.781537106;France
25120;cernay l eglise;47.250652851;6.833462526;France
25170;champvans les moulins;47.256346998;5.90810348;France
25270;chapelle d huin;46.933904505;6.165710055;France
25840;chateauvieux les fosses;47.056818017;6.200847925;France
25190;les terres de chaux;47.316588286;6.728495121;France
25430;chazot;47.32828307;6.539264417;France
25320;chemaudin et vaux;47.225551432;5.889498722;France
25530;chevigney les vercel;47.16459771;6.367421915;France
25440;chouzelot;47.122651016;5.909032734;France
25340;pays de clerval;47.390020699;6.50844951;France
25300;la cluse et mijoux;46.868388884;6.393428735;France
25390;consolation maisonnettes;47.153460679;6.602655225;France
25440;cussey sur lison;47.062313831;5.95721858;France
25440;cussey sur lison;47.062313831;5.95721858;France
25870;cussey sur l ognon;47.327833535;5.940362064;France
25110;dammartin les templiers;47.293745097;6.279851008;France
25450;damprichard;47.238016879;6.873486748;France
25750;desandans;47.538798304;6.671399913;France
21450;ampilly les bordes;47.639055718;4.627205952;France
25510;domprel;47.197383402;6.479025572;France
21700;arcenant;47.140218174;4.8383377880000005;France
25300;doubs;46.931538419;6.359791963;France
21410;arcey;47.27465245;4.824541977;France
25440;echay;47.046377452;5.950269812;France
21340;aubigny la ronce;46.987850557;4.596664338;France
25800;epenoy;47.134386311;6.384503961;France
21540;aubigny les sombernon;47.300601777;4.642182477;France
25290;epeugney;47.127208331;6.01979937;France
21120;avelanges;47.587189462;5.030540108;France
25580;etalans;47.165237266;6.253709669;France
21460;bard les epoisses;47.528381461;4.224507103;France
25330;eternoz;47.016116016;6.001525645;France
21910;barges;47.209301901;5.059598976;France
25260;etouvans;47.456043561;6.720419647;France
21490;bellefond;47.379539646;5.063928026;France
25250;etrappe;47.47262194;6.579825242;France
21510;bellenod sur seine;47.695123627;4.645278091;France
25250;faimbe;47.484835143;6.615215601;France
21290;beneuvre;47.693462477;4.935269267;France
25490;fesches le chatel;47.519551556;6.901116696;France
21310;bezouotte;47.383730873;5.335655946;France
25470;fessevillers;47.280419512;6.919200974;France
21270;binges;47.325446544;5.268697902;France
25720;fontain;47.190482288;6.031784871;France
21540;blaisy haut;47.361505158;4.767115747;France
25340;fontenelle montby;47.447797197;6.411865114;France
21440;bligny le sec;47.448179245;4.740686309;France
25110;fontenotte;47.375537776;6.313972679;France
21520;boudreville;47.929691083;4.831773643;France
25300;les fourgs;46.840225847;6.415760657;France
21360;bouhey;47.201285682;4.677752246;France
25170;franey;47.258902874;5.8120640130000005;France
21250;bousselange;46.994067602;5.252524033;France
25270;gevresin;46.963297769;6.048541891;France
21260;boussenois;47.625922361;5.205228641;France
25360;glamondans;47.266919008;6.287358048;France
21560;bressey sur tille;47.308579478;5.184046106;France
25360;gonsans;47.226403843;6.297417385;France
21570;brion sur ource;47.9060885;4.669488517;France
25470;goumois;47.267072716;6.939662295;France
21150;bussy le grand;47.576151877;4.523070551;France
25150;goux les dambelin;47.398022553;6.67769756;France
21430;censerey;47.19769871;4.335885827;France
25210;grand combe des bois;47.135812571;6.780162154;France
21210;champeau en morvan;47.273186683;4.156312734;France
25390;fournets luisans;47.101814506;6.559070686;France
21690;charencey;47.419930682;4.670405019;France
25510;grandfontaine sur creuse;47.183454861;6.456393807;France
21610;chaume et courchamp;47.580389843;5.360944654;France
25110;grosbois;47.347020337;6.305100022;France
21450;chaume les baigneux;47.632891917;4.573677446;France
25310;herimoncourt;47.436166673;6.884857735;France
21700;chaux;47.127485072;4.907818655;France
25170;jallerange;47.256860043;5.719476881;France
21800;chevigny st sauveur;47.299874546;5.1367070550000005;France
25370;jougne;46.76420948;6.403780981;France
21270;cirey les pontailler;47.302482753;5.308934905;France
25160;labergement ste marie;46.779390107;6.276976882;France
21490;clenay;47.413632921;5.114675935;France
25820;laissey;47.300274671;6.227875643;France
21220;collonges les bevy;47.171376712;4.837134797;France
25210;laval le prieure;47.180584738;6.621510457;France
21110;collonges et premieres;47.228638946;5.291997765;France
25440;lavans quingey;47.086711146;5.896157888;France
21190;corpeau;46.92718555;4.759967003;France
25510;laviron;47.25503494;6.558880751;France
21160;couchey;47.261703064;4.961890556;France
25270;levier;46.959668626;6.11213352;France
21460;courcelles fremoy;47.44676331;4.186476162;France
25190;liebvillers;47.331187976;6.784589131;France
21310;cuiserey;47.370698332;5.317594192;France
25440;liesle;47.066447044;5.812438009;France
21380;curtil st seine;47.460271368;4.929499807;France
25930;lods;47.049668533;6.255278254;France
21580;cussey les forges;47.637177872;5.083751743;France
25440;lombard;47.081362199;5.85001211;France
21350;dampierre en montagne;47.438812822;4.558674541;France
25690;longechaux;47.165159219;6.436124869;France
21121;darois;47.393960138;4.933172959;France
25690;longemaison;47.083397874;6.457555557;France
21430;diancey;47.174637066;4.367183025;France
25380;longevelle les russey;47.223502764;6.65598026;France
21390;dompierre en morvan;47.400619986;4.231517635;France
25650;la longeville;47.018067328;6.466729265;France
21510;echalot;47.607313502;4.834941839;France
25250;mancenans;47.462765615;6.542017021;France
21170;echenon;47.120075512;5.286922339;France
25640;marchaux chaudefontaine;47.331094808;6.137119496;France
21360;ecutigny;47.084246568;4.622881066;France
25410;mercey le grand;47.212285682;5.751259384;France
21380;epagny;47.452430956;5.049465476;France
25870;merey vieilley;47.331228723;6.064417351;France
21220;epernay sous gevrey;47.174400105;5.037366565;France
25190;montancy;47.355649322;7.031753738;France
21220;l etang vergy;47.18282636;4.876032975;France
25260;montenois;47.493087704;6.658365384;France
21600;fenay;47.244959998;5.054334077;France
25320;montferrand le chateau;47.185860108;5.918714179;France
21130;flagey les auxonne;47.131657314;5.3946062040000005;France
25650;montflovin;46.993842787;6.439793553;France
21150;frolois;47.529077614;4.647640085;France
25111;montgesoye;47.087994113;6.192368758;France
21110;genlis;47.240931749;5.221175688;France
25500;montlebon;47.022537271;6.621066285;France
21520;gevrolles;47.98956162;4.750585646;France
25660;montrond le chateau;47.14566371;6.042522572;France
21540;grenant les sombernon;47.268965066;4.71199289;France
25680;montussaint;47.435905074;6.291526932;France
21150;jailly les moulins;47.462537081;4.593692208;France
25660;morre;47.219466564;6.072296484;France
21460;jeux les bard;47.531694207;4.255170669;France
25500;morteau;47.063241756;6.583007352;France
21340;val mont;47.032145363;4.615683288;France
25240;mouthe;46.681774929;6.205504524;France
21250;labruyere;47.038505341;5.141919044;France
25330;nans sous ste anne;46.97717824;5.992844832;France
21760;lamarche sur saone;47.272882021;5.369828178;France
25580;les premiers sapins;47.082628772;6.339414929;France
21250;lanthes;46.999042398;5.204193716;France
25120;orgeans blanchefontaine;47.266027852;6.753618492;France
21440;lery;47.55649713;4.845721035;France
25620;ornans;47.101387882;6.151533154;France
21290;leuglay;47.813706127;4.818332553;France
25690;passonfontaine;47.094615944;6.422904696;France
21110;longeault pluvault;47.211203965;5.246810478;France
25190;peseux;47.318621616;6.686548393;France
21110;longecourt en plaine;47.198273816;5.146304139;France
25310;pierrefontaine les blamont;47.371345543;6.825308601;France
21600;longvic;47.285554699;5.052953379;France
25210;plaimbois du miroir;47.194698075;6.649270039;France
21150;lucenay le duc;47.622277394;4.500077087;France
25340;pompierre sur doubs;47.423528109;6.526371916;France
21230;magnien;47.109077798;4.433223828;France
25115;pouilley les vignes;47.260553894;5.9358152660000005;France
21140;magny la ville;47.479868307;4.429501217;France
25380;provenchere;47.28955699;6.643659678;France
21130;magny montarlot;47.249181298;5.347254072;France
25430;rahon;47.327485911;6.581573403;France
21330;marcenay;47.861387025;4.404644562;France
25240;reculfoz;46.710853837;6.148155722;France
21430;marcheseuil;47.144726388;4.372657408;France
25160;remoray boujeons;46.759533734;6.217624082;France
21390;marcigny sous thil;47.391084363;4.383610872;France
25340;roche les clerval;47.363752644;6.469957264;France
21320;martrois;47.30676898;4.547472411;France
25440;rouhe;47.082090554;5.966156913;France
21140;massingy les semur;47.516765666;4.405441665;France
25640;roulans;47.317369365;6.23561852;France
21270;maxilly sur saone;47.331091404;5.41980122;France
25290;rurey;47.095831545;5.997470619;France
21320;meilly sur rouvres;47.20532991;4.5523377400000005;France
25370;st antoine;46.782538802;6.33342256;France
21580;le meix;47.594156363;4.942354859;France
25640;st hilaire;47.334468317;6.245381692;France
21150;menetreux le pitois;47.55961594;4.460601471;France
25550;st julien les montbeliard;47.519259162;6.707369256;France
21380;messigny et vantoux;47.418907945;5.001502062;France
25260;st maurice colombier;47.43178917;6.65022211;France
21310;mirebeau sur beze;47.402157752;5.3222399320000005;France
25630;ste suzanne;47.507926205;6.767676273;France
21210;missery;47.31178495;4.374755853;France
25410;st vit;47.185580658;5.82077343;France
21500;montbard;47.657440058;4.349927935;France
25430;sancey;47.293416609;6.5715831;France
21460;montberthault;47.461520776;4.157954073;France
25580;saules;47.124753643;6.200959744;France
21500;montigny montfort;47.583223961;4.339256108;France
25750;semondans;47.540585662;6.69284632;France
21140;montigny sur armancon;47.439760965;4.373554548;France
25380;surmont;47.272875486;6.611977339;France
21520;montigny sur aube;47.954043644;4.755377023;France
25400;taillecourt;47.494523378;6.854420554;France
21220;morey st denis;47.19979636;4.961892779;France
25680;tallans;47.411436323;6.287573678;France
21400;mosson;47.920801192;4.628817484;France
25220;thise;47.286761397;6.082639512;France
21390;nan sous thil;47.380630018;4.358997092;France
25320;thoraise;47.170166813;5.909357829;France
21330;nicey;47.865618205;4.293876402;France
25310;thulay;47.428406883;6.859117138;France
21340;nolay;46.959088382;4.619842173;France
25300;verrieres de joux;46.886293507;6.44755843;France
21450;oigny;47.5835002;4.724583333;France
25660;la veze;47.197640299;6.07341306;France
21610;orain;47.610372517;5.434636499;France
25870;vieilley;47.336729882;6.08519443;France
21360;painblanc;47.148685761;4.624657399;France
21130;poncey les athee;47.235744302;5.38505837;France
21250;pouilly sur saone;47.011250518;5.121542837;France
21610;pouilly sur vingeanne;47.540244738;5.451760093;France
21700;premeaux prissey;47.105047387;4.942821951;France
21400;prusly sur ource;47.879912638;4.643713705;France
21800;quetigny;47.319399839;5.115061339;France
21290;recey sur ource;47.780847414;4.8625897810000005;France
21310;reneve;47.411116645;5.407129622;France
21390;roilly;47.417254366;4.340894258;France
21530;rouvray;47.417667127;4.110708147;France
21530;st andeux;47.395061142;4.092939228;France
21700;st bernard;47.159619705;5.023529203;France
21290;st broing les moines;47.701061617;4.842958049;France
21350;ste colombe en auxois;47.42714172;4.461237538;France
21400;ste colombe sur seine;47.860574953;4.528339217;France
21690;st helier;47.389208288;4.701225771;France
21170;st jean de losne;47.101837846;5.265947133;France
21490;st julien;47.395665617;5.14120155;France
21410;ste marie sur ouche;47.288487386;4.803540865;France
21540;st mesmin;47.346074214;4.655213638;France
21270;st sauveur;47.358454362;5.406230234;France
21440;st seine l abbaye;47.441411467;4.782086985;France
21170;st usage;47.109187696;5.250172507;France
21590;santenay;46.917044131;4.693376033;France
21340;santosse;47.006998252;4.634278178;France
21360;saussey;47.063601057;4.609320935;France
21540;savigny sous malain;47.331598741;4.754291197;France
21910;savouges;47.180900421;5.058279605;France
21220;segrois;47.160839775;4.893724509;France
21150;seigny;47.576961031;4.439366686;France
21320;semarey;47.268465329;4.626111326;France
21220;semezanges;47.215715476;4.85077659;France
21450;semond;47.713045261;4.572788742;France
21500;senailly;47.582991692;4.266570447;France
21270;talmay;47.366644381;5.46029203;France
21120;tarsul;47.518863362;4.979226103;France
21110;tart le bas;47.206482504;5.223135796;France
21110;tart;47.192656727;5.214099319;France
21320;thoisy le desert;47.249343023;4.52118266;France
21250;tichey;47.012469724;5.288486992;France
21460;toutry;47.500827642;4.128862764;France
21170;trouhans;47.152554867;5.27099554;France
21150;venarey les laumes;47.537692615;4.440176052;France
21330;verdonnet;47.742169481;4.335601547;France
21260;veronnes;47.535521283;5.238931352;France
21520;veuxhaulles sur aube;47.939667384;4.812105277;France
21540;vieilmoulin;47.313997891;4.672348437;France
21200;vignoles;47.025603891;4.886667726;France
21210;villargoix;47.292138151;4.290915586;France
21350;villeberny;47.436205056;4.60028487;France
21350;villy en auxois;47.414866721;4.628366676;France
21250;villy le moutier;47.03853781;4.987527672;France
21400;vix;47.907040458;4.536941187;France
21190;volnay;46.999062912;4.783181409;France
21230;voudenay;47.094320733;4.380001962;France
25360;adam les passavant;47.304423439;6.368961844;France
25530;adam les vercel;47.163652359;6.390747202;France
25300;arcon;46.965530071;6.379010107;France
25520;arc sous cicon;47.052001906;6.399503842;France
25520;aubonne;47.036991462;6.343774295;France
25870;les auxons;47.301083178;5.951490186;France
25550;bavans;47.483488625;6.725023538;France
25380;belleherbe;47.263740562;6.650637647;France
25200;bethoncourt;47.540761174;6.800183507;France
25190;bief;47.322119805;6.773523145;France
25330;bolandoz;47.006848948;6.114860885;France
25210;bonnetage;47.180405713;6.738793642;France
25360;bouclans;47.244707947;6.235312183;France
25150;bourguignon;47.412906733;6.773436925;France
25340;branne;47.379863408;6.480150076;France
25250;bretigney;47.486573214;6.635080795;France
25600;brognard;47.527688414;6.865265303;France
25320;busy;47.167966537;5.954497312;France
25440;by;47.012127651;5.898912319;France
25320;byans sur doubs;47.112728064;5.847476913;France
25380;chamesey;47.237090363;6.632153755;France
25330;chantrans;47.047745204;6.162728603;France
25440;charnay;47.128364718;5.9508820710000006;France
25640;chatillon guyotte;47.327974033;6.168672224;France
25440;chay;47.033243816;5.861702592;France
25770;chemaudin et vaux;47.225551432;5.889498722;France
25170;chevigney sur l ognon;47.293255946;5.846388311;France
25330;cleron;47.082006859;6.071081456;France
25340;pays de clerval;47.390020699;6.50844951;France
25500;les combes;47.047311582;6.537070275;France
25410;corcondray;47.22689557;5.82815583;France
25440;courcelles;47.101007418;5.95888788;France
25530;courtetain et salans;47.259778312;6.426672658;France
25270;crouzet migette;46.957097031;6.011337688;France
25680;cubrial;47.504382804;6.402879543;France
25680;cubry;47.498514816;6.423669139;France
25150;dambelin;47.369184131;6.667526827;France
2220;braine;49.348518224;3.536763117;France
25230;dasle;47.482622115;6.896346932;France
2110;brancourt le grand;49.980556024;3.394377197;France
25330;deservillers;46.999230497;6.072633537;France
2240;brissay choigny;49.722999325;3.397153709;France
25580;durnes;47.106434584;6.222743371;France
2220;bruys;49.261914887;3.568519675;France
25480;ecole valentin;47.274547645;5.988996534;France
2500;bucilly;49.866351037;4.09342038;France
25480;ecole valentin;47.274547645;5.988996534;France
2870;bucy les cerny;49.579101939;3.496606176;France
25140;les ecorces;47.204398318;6.79706026;France
2350;bucy les pierrepont;49.646348774;3.903113266;France
25150;ecurcey;47.402827225;6.803889804;France
2810;bussiares;49.076557021;3.250333474;France
25170;emagny;47.304098687;5.868927656;France
2420;le catelet;50.000988906;3.24317682;France
25330;eternoz;47.016116016;6.001525645;France
2300;caumont;49.637686756;3.172916368;France
25580;fallerans;47.138501269;6.292666869;France
2240;cerizy;49.766172395;3.32359533;France
25470;ferrieres le lac;47.268345587;6.889751902;France
2870;cerny les bucy;49.577784884;3.5462474;France
25330;fertans;47.055949024;6.065214181;France
2220;cerseuil;49.324498852;3.5174254730000003;France
25190;feule;47.350949336;6.735808695;France
2270;chalandry;49.670262121;3.644556987;France
25500;les fins;47.078650056;6.628880942;France
2670;champs;49.54391254;3.261593233;France
25370;fourcatier et maison neuve;46.764007186;6.31348775;France
2310;charly sur marne;48.987508694;3.292271602;France
25190;froidevaux;47.300769601;6.693172288;France
2400;charteves;49.089938422;3.50886325;France
25390;fuans;47.127962473;6.58978501;France
2160;chaudardes;49.396446073;3.789258777;France
25240;gellin;46.717675938;6.234807455;France
2000;chavignon;49.479022495;3.518689564;France
25870;geneuille;47.320522031;5.971782468;France
2270;chevresis monceau;49.761675335;3.5828212180000003;France
25510;germefontaine;47.22489224;6.482959354;France
2400;chierry;49.034780078;3.434013377;France
25650;gilley;47.054177095;6.488024089;France
2880;chivres val;49.402926304;3.438765509;France
25190;glere;47.348257334;6.983756337;France
2130;cierges;49.164572732;3.604740104;France
25190;glere;47.348257334;6.983756337;France
2000;clacy et thierret;49.552417519;3.565677453;France
25440;goux sous landet;47.078678808;5.932899425;France
25650;hauterive la fresse;46.967518503;6.456055061;France
25620;l hopital du grosbois;47.180087227;6.211261901;France
25340;l hopital st lieffroy;47.399564977;6.455986794;France
25250;hyemondans;47.381467273;6.640073548;France
25160;labergement ste marie;46.779390107;6.276976882;France
25130;villers le lac;47.07061191;6.689764642;France
25550;laire;47.550599751;6.734240083;France
25170;lantenne vertiere;47.23107732;5.773171463;France
25170;lavernay;47.244456134;5.818327852;France
25270;levier;46.959668626;6.11213352;France
25330;lizine;47.055221042;5.993329034;France
25330;longeville;47.02842758;6.229220115;France
25370;longevilles mont d or;46.745152917;6.330378623;France
25110;luxiol;47.379564427;6.347673143;France
25120;maiche;47.239836809;6.798527928;France
25620;malbrans;47.123410849;6.0887448;France
25620;mamirolle;47.198979131;6.161948564;France
25250;marvelise;47.521945067;6.594369356;France
25700;mathay;47.442693838;6.770695033;France
25410;mercey le grand;47.212285682;5.751259384;France
25170;moncley;47.303416468;5.90262275;France
25210;mont de laval;47.16182578;6.635987788;France
25120;mont de vougney;47.242255197;6.739633828;France
25660;montfaucon;47.241779882;6.086751473;France
25920;mouthier haute pierre;47.034458994;6.276033005;France
25360;osse;47.270873401;6.211489132;France
25520;ouhans;47.001146271;6.301940624;France
25530;ouvans;47.276265058;6.488170458;France
25360;passavant;47.278204878;6.39486536;France
25510;pierrefontaine les varans;47.219585269;6.550507921;France
25170;placey;47.25795692;5.848539543;France
25440;le val;47.063051358;5.906786548;France
25300;pontarlier;46.912001061;6.389237772;France
70300;abelcourt;47.793017587;6.277605629;France
25240;les pontets;46.721283756;6.163328455;France
70280;amage;47.846082414;6.497632308;France
25640;pouligney lusans;47.335138381;6.200686615;France
70200;amblans et velotte;47.680835705;6.417873412;France
25250;rang;47.42338688;6.5624792240000005;France
70110;autrey les cerre;47.613034745;6.345513789;France
25150;remondans vaivre;47.379252444;6.708361041;France
70100;auvet et la chapelotte;47.507165522;5.525736079;France
25110;rillans;47.413191704;6.366711952;France
70000;auxon;47.694186575;6.15517234;France
25560;la riviere drugeon;46.874392091;6.214743695;France
70140;bard les pesmes;47.278128938;5.627895735;France
25310;roches les blamont;47.410650192;6.854238826;France
70300;baudoncourt;47.775434757;6.34369778;France
25680;rougemont;47.479650275;6.347947078;France
70270;belonchamp;47.773601385;6.609391174;France
25640;rougemontot;47.390398335;6.26274994;France
70400;belverne;47.627747177;6.654622601;France
25170;sauvagney;47.32197396;5.911168955;France
70210;betoncourt st pancras;47.918228924;6.181387662;France
25110;silley blefond;47.321890573;6.330461454;France
70500;betoncourt sur mance;47.838043416;5.754509431;France
25600;sochaux;47.514446857;6.830048008;France
70110;beveuge;47.559857968;6.49107195;France
25190;solemont;47.344565374;6.706201015;France
70500;bousseraucourt;47.963044872;5.935858342;France
25520;sombacour;46.95021968;6.241091602;France
70100;broye les loups et verfontaine;47.462006818;5.430905886;France
25320;torpes;47.172432775;5.880815921;France
70360;bucey les traves;47.628825804;5.985272439;France
25370;touillon et loutelet;46.793561298;6.351805357;France
70230;cenans;47.432930892;6.188764491;France
25470;urtiere;47.256791383;6.922866622;France
70600;champlitte;47.632260662;5.513302307;France
25700;valentigney;47.46427805;6.825422975;France
70600;champlitte;47.632260662;5.513302307;France
25190;valonne;47.342525104;6.668210169;France
70600;champlitte;47.632260662;5.513302307;France
25190;vaufrey;47.340530906;6.931141027;France
70100;champtonnay;47.37619281;5.661929374;France
25160;vaux et chantegrue;46.799295069;6.234371622;France
70100;champvans;47.396781684;5.592345301;France
25870;venise;47.349654114;6.113475713;France
70140;chancey;47.323878666;5.678591013;France
